,LON,LAT,NUMBER,STREET,UNIT,CITY,DISTRICT,REGION,POSTCODE,ID,HASH
8564183,-122.0839135,37.3549255,1490,HOLLY AVE,,LOS ALTOS,,,94024,,c8d20ab2727ead01
8564185,-122.0980338,37.3698114,744,ROSE LN,,LOS ALTOS,,,94024,,d4fe50397ae6feb9
8564237,-122.0712804,37.3538841,1534,WESSEX AVE,,LOS ALTOS,,,94024,,fa9d02cae146e21f
8564255,-122.1243728,37.3900565,430,SAN DOMINGO WAY,,LOS ALTOS,,,94022,,17dd15d6c4b284f3
8564271,-122.1261447,37.3928503,621,TWELVE ACRES DR,,LOS ALTOS,,,94022,,4bc4ce55bce0fac3
8564310,-122.1071595,37.3735735,520,SHELBY LN,,LOS ALTOS,,,94024,,53bd925271a0fd3a
8564365,-122.1025262,37.3881459,370,VERANO DR,,LOS ALTOS,,,94022,,50429bfe6eb37ba1
8564428,-122.103105,37.3692477,448,LA PRENDA RD,,LOS ALTOS,,,94024,,b13b386271d5e8dd
8564493,-122.0917198,37.3509906,1560,COUNTRY CLUB DR,,LOS ALTOS,,,94024,,313f3853e0d13a55
8564539,-122.0652912,37.3593756,1709,JOEL WAY,,LOS ALTOS,,,94024,,e6da4b02890c5474
8564578,-122.0820824,37.3570158,1230,PAYNE DR,,LOS ALTOS,,,94024,,f026152c1fae3630
8564579,-122.0807685,37.3417555,2041,STONEHAVEN DR,,LOS ALTOS,,,94024,,e10afd12312a4d09
8564580,-122.0986841,37.3784881,637,HAWTHORNE AVE,,LOS ALTOS,,,94024,,cba3d5052cdeffea
8564590,-122.0760369,37.3552432,1365,RANCHITA DR,,LOS ALTOS,,,94024,,f9bff16a8a496e0c
8564621,-122.1195644,37.388354,250,YERBA SANTA AVE,,LOS ALTOS,,,94022,,281911210e23116d
8564803,-122.1182601,37.3929786,640,KINGSWOOD WAY,,LOS ALTOS,,,94022,,ed16f0589ec0aeb6
8564826,-122.0743061,37.3516543,1626,AUSTIN AVE,,LOS ALTOS,,,94024,,94f7b4bdb6301cc3
8564832,-122.070698,37.3369878,1570,WISTARIA LN,,LOS ALTOS,,,94024,,a0afed75e340d0bb
8564867,-122.1172599,37.3723935,591,UNIVERSITY AVE,,LOS ALTOS,,,94022,,287e4bc3b3073b52
8564872,-122.0746708,37.3581814,1410,MIRAVALLE AVE,,LOS ALTOS,,,94024,,382775109c11d016
8564920,-122.1177099,37.3712391,662,UNIVERSITY AVE,,LOS ALTOS,,,94022,,d69e4cfe57c94a8a
8564944,-122.1065027,37.3921623,624,DISTEL DR,,LOS ALTOS,,,94022,,86349fde7d2438ca
8564951,-122.1049112,37.3703383,722,LA PRENDA RD,,LOS ALTOS,,,94024,,fc24c7cd739458a4
8564955,-122.1077416,37.3782324,250,S GORDON WAY,,LOS ALTOS,,,94022,,4612373c7c56dd36
8564977,-122.1126225,37.3696254,751,EDGEWOOD LN,,LOS ALTOS,,,94022,,4d5e69616bd2e16f
8565013,-122.1094371,37.3679414,839,CARNATION CT,,LOS ALTOS,,,94024,,0bb8fb03d9dc5188
8565109,-122.1165409,37.3999161,108,LOUCKS AVE,,LOS ALTOS,,,94022,,a3273d671742cd4b
8565117,-122.1195997,37.3717322,631,MANRESA LN,,LOS ALTOS,,,94022,,c6134f149f02a50c
8565161,-122.0823345,37.3555951,1160,PAYNE DR,,LOS ALTOS,,,94024,,4c8840a39e78423e
8565198,-122.1114224,37.3725453,131,GIFFIN RD,,LOS ALTOS,,,94022,,a7368c4f31663828
8565204,-122.069046,37.3426849,1966,CHURTON AVE,,LOS ALTOS,,,94024,,9a45b5941bd8a793
8565217,-122.0895059,37.3667657,905,RUSSELL AVE,,LOS ALTOS,,,94024,,c32031a2aaf74f57
8565235,-122.0708612,37.3478577,1683,DALEHURST AVE,,LOS ALTOS,,,94024,,fc5eba82863159d5
8565260,-122.106959,37.3866486,290,ALICIA WAY,,LOS ALTOS,,,94022,,522be73b5a4c0699
8565263,-122.098567,37.3757511,637,BENVENUE AVE,,LOS ALTOS,,,94024,,776f610cde841d90
8565303,-122.0658749,37.3529099,1498,BROOKMILL RD,,LOS ALTOS,,,94024,,599b44a095ab4e17
8565305,-122.1176936,37.3860588,258,CHERRY AVE,,LOS ALTOS,,,94022,,d8f711c94dec9d30
8565369,-122.069996,37.3418893,2008,CHURTON AVE,,LOS ALTOS,,,94024,,8a07997406d46ce6
8565398,-122.0643522,37.3589019,1728,JOEL WAY,,LOS ALTOS,,,94024,,c14548d2224eb015
8565468,-122.0671975,37.3395206,2037,EL SERENO AVE,,LOS ALTOS,,,94024,,01aad57e7a4cc890
8565531,-122.0999198,37.3458742,11078,EASTBROOK AVE,,LOS ALTOS,,,94024,,3a0162b1b5da0782
8565537,-122.0744182,37.3466865,1830,AUSTIN AVE,,LOS ALTOS,,,94024,,ad5b7b8e92d8c4c6
8565604,-122.101643,37.3761788,522,PACO DR,,LOS ALTOS,,,94024,,9ebab3de0a3c124e
8565644,-122.1176888,37.3869516,151,SYLVIAN WAY,,LOS ALTOS,,,94022,,8e6377d870fa10ea
8565653,-122.1135875,37.3803606,161,S SAN ANTONIO RD,,LOS ALTOS,,,94022,,8063b31e022050c5
8565697,-122.0644712,37.3565325,1724,OAK AVE,,LOS ALTOS,,,94024,,a3565daddd5a07d7
8565701,-122.0734272,37.3478232,1442,MORTON AVE,,LOS ALTOS,,,94024,,4825a16690983790
8565742,-122.1237285,37.3879723,433,YERBA BUENA AVE,,LOS ALTOS,,,94022,,5addfd02b6770969
8565771,-122.0742653,37.3510203,1650,AUSTIN AVE,,LOS ALTOS,,,94024,,07ee1ccc7bf1785f
8565865,-122.0981816,37.3726991,644,ARBOLEDA DR,,LOS ALTOS,,,94024,,a4aaf81a1e5c2a66
8565895,-122.1047442,37.3865883,290,AVALON DR,,LOS ALTOS,,,94022,,c4989eea8503a181
8565898,-122.114588,37.3715486,640,PALM AVE,,LOS ALTOS,,,94022,,888014dc9bdb87cb
8565901,-122.0901386,37.3667406,906,RUSSELL AVE,,LOS ALTOS,,,94024,,65d0bfe5f5c1c340
8565913,-122.0970103,37.3731326,677,ARBOLEDA DR,,LOS ALTOS,,,94024,,a86e76dad908107f
8565940,-122.1156817,37.3673775,65,BAY TREE LN,,LOS ALTOS,,,94022,,cc36f118fdd88521
8566002,-122.099049,37.3476276,1702,MILLER AVE,,LOS ALTOS,,,94024,,f5b76ac962466cca
8566028,-122.1037032,37.3604001,486,VALLEY VIEW DR,,LOS ALTOS,,,94024,,bf2f557d91a1f4be
8566075,-122.1018931,37.3743597,510,SAN LUIS AVE,,LOS ALTOS,,,94024,,cecde61ab517a523
8566090,-122.0757981,37.3356036,533,MIMOSA CT,,LOS ALTOS,,,94024,,b8af5ab49c7cc3d4
8566099,-122.1204598,37.3937613,257,ALBA CT,,LOS ALTOS,,,94022,,4e45b9649f0e0321
8566100,-122.0819478,37.353911,1535,KENSINGTON CIR,,LOS ALTOS,,,94024,,1e8e01552a093726
8566108,-122.0879015,37.3560554,951,AURA WAY,,LOS ALTOS,,,94024,,929c8994615059cf
8566110,-122.0948132,37.3843559,729,VISTA GRANDE AVE,,LOS ALTOS,,,94024,,e6a2cce5b47443b2
8566126,-122.1183926,37.4032198,197,SANTA RITA CT,,LOS ALTOS,,,94022,,acd0472592cc6019
8566186,-122.0997005,37.3770871,608,GIRALDA DR,,LOS ALTOS,,,94024,,2faaa01ee1ffeeb7
8566250,-122.0611859,37.330234,10510,CRESTON DR,,LOS ALTOS,,,94024,,e262f394a66d33f8
8566355,-122.0792262,37.3511514,1253,RICHARDSON AVE,,LOS ALTOS,,,94024,,403c5eb73ccafc8e
8566357,-122.1164822,37.3875093,100,YERBA BUENA AVE,,LOS ALTOS,,,94022,,b531e9fb79e4228a
8566369,-122.1019529,37.3872582,321,VERANO DR,,LOS ALTOS,,,94022,,cf36141bec3fd190
8566383,-122.1127135,37.3896186,58,SEVILLA DR,,LOS ALTOS,,,94022,,57e5154788bf7b61
8566432,-122.0757218,37.3535196,1372,GARTHWICK CT,,LOS ALTOS,,,94024,,9e954d1e221a011b
8566440,-122.0731352,37.3346093,1425,CEDAR PL,,LOS ALTOS,,,94024,,c5289f58534e4f4d
8566490,-122.1174027,37.3662743,29,DEEP WELL LN,,LOS ALTOS,,,94022,,3d251abbafe1360d
8566517,-122.1052949,37.3779391,389,HAWTHORNE AVE,,LOS ALTOS,,,94022,,9a2576f898aeacf2
8566521,-122.0745288,37.3530742,1567,SIESTA DR,,LOS ALTOS,,,94024,,6428a695792d03dd
8566546,-122.1150459,37.3799889,130,MAIN ST,,LOS ALTOS,,,94022,,cf63deaf1902b4f3
8566548,-122.0940458,37.3625975,752,EDGE LN,,LOS ALTOS,,,94024,,c6763ce40c3c680f
8566565,-122.1167238,37.3727498,580,ORANGE AVE,,LOS ALTOS,,,94022,,6dff2235fb6c0006
8566667,-122.0884386,37.3657748,939,CASTILLEJA CT,,LOS ALTOS,,,94024,,41e33df383a4f899
8566753,-122.0976083,37.3819391,678,CORAL CT,,LOS ALTOS,,,94024,,61f059848eda30ad
8566780,-122.0763405,37.3463145,1850,MIDDLETON AVE,,LOS ALTOS,,,94024,,228206a04bec2ae7
8566788,-122.0963045,37.3739278,510,S SPRINGER RD,,LOS ALTOS,,,94024,,cf1e339cb7559326
8566919,-122.0934398,37.3653251,986,LEONELLO AVE,,LOS ALTOS,,,94024,,da7003ceb151efea
8566933,-122.0862489,37.3409426,930,REGENT DR,,LOS ALTOS,,,94024,,a4d9e6e82c4b5f7f
8567012,-122.1188681,37.3970438,223,W PORTOLA AVE,,LOS ALTOS,,,94022,,6b492dd490d4a5fa
8567026,-122.078739,37.3399837,1252,WINDIMER DR,,LOS ALTOS,,,94024,,bd493291909a89fa
8567052,-122.1036547,37.384109,147,SOLANA DR,,LOS ALTOS,,,94022,,a80ab6eaee5f657c
8567056,-122.1154855,37.3692866,625,MILVERTON RD,,LOS ALTOS,,,94022,,7e5a83051fab9082
8567059,-122.1208276,37.4037246,305,LANGTON AVE,,LOS ALTOS,,,94022,,19d3b95a85565c9a
8567097,-122.0963759,37.3616483,695,BERRY AVE,,LOS ALTOS,,,94024,,85ebf739e36dd7bf
8567172,-122.0827891,37.3413217,2071,KENT DR,,LOS ALTOS,,,94024,,b651471a5e75618d
8567339,-122.0985017,37.3794548,637,STARDUST LN,,LOS ALTOS,,,94024,,79088b61361c9854
8567423,-122.1171017,37.3998974,132,LOUCKS AVE,,LOS ALTOS,,,94022,,a703b6763e7cf5bf
8567435,-122.0681926,37.3385788,2283,GRANT RD,,LOS ALTOS,,,94024,,f466cf2b2a5934b3
8567436,-122.1115314,37.3752056,102,LYELL ST,,LOS ALTOS,,,94022,,aa0db8ce75392871
8567459,-122.080808,37.3602112,1205,PORTLAND AVE,,LOS ALTOS,,,94024,,1681a90154d67073
8567470,-122.0805754,37.3488917,1200,BRUCITO AVE,,LOS ALTOS,,,94024,,3ee8529c8853742a
8567483,-122.1182764,37.3924619,620,KINGSWOOD WAY,,LOS ALTOS,,,94022,,66ae2fac3caccd20
8567531,-122.0651406,37.3459482,1721,PENNY WAY,,LOS ALTOS,,,94024,,74ee742464e548ff
8567552,-122.0668268,37.3439919,1925,FARNDON AVE,,LOS ALTOS,,,94024,,9c87d785e91703bf
8567594,-122.1104657,37.3757448,165,LYELL ST,,LOS ALTOS,,,94022,,cb1ef5a90f223aff
8567684,-122.0944122,37.3844411,739,VISTA GRANDE AVE,,LOS ALTOS,,,94024,,5ce9fe93748c6c71
8567729,-122.094401,37.383271,735,RAYMUNDO AVE,,LOS ALTOS,,,94024,,0103c5ca55dda309
8567812,-122.1173242,37.3661463,26,DEEP WELL LN,,LOS ALTOS,,,94022,,7f23bc985674b77c
8567989,-122.0838331,37.3660651,945,EASTWOOD PL,,LOS ALTOS,,,94024,,655da26341424c68
8568026,-122.0694795,37.3541527,1527,QUEENSBURY AVE,,LOS ALTOS,,,94024,,5982db9bfd432ea2
8568109,-122.0737237,37.3496514,1711,AUSTIN AVE,,LOS ALTOS,,,94024,,8d4efaf6487b86a0
8568235,-122.0810655,37.3468524,1824,GRANGER AVE,,LOS ALTOS,,,94024,,c413ab48535437da
8568250,-122.0875691,37.3532276,979,FREMONT AVE,,LOS ALTOS,,,94024,,fe019a74968cb00e
8568296,-122.0891443,37.3516508,911,LOYOLA DR,,LOS ALTOS,,,94024,,db981d4a40cd03d6
8568297,-122.0889684,37.3518566,1586,COUNTRY CLUB DR,,LOS ALTOS,,,94024,,e038546c1cdea2e6
8568298,-122.088202,37.351986,1000,LOYOLA DR,,LOS ALTOS,,,94024,,61e5a36a47ec39db
8568300,-122.0877969,37.3515592,995,LUNDY LN,,LOS ALTOS,,,94024,,14d31e696d4c0371
8568301,-122.1205081,37.3924998,265,PINE LN,,LOS ALTOS,,,94022,,0dfb5b1780743c40
8568314,-122.1206752,37.4005128,276,SANTANDER CT,,LOS ALTOS,,,94022,,eda7c1d2ad25edab
8568318,-122.118529,37.3752081,416,UNIVERSITY AVE,,LOS ALTOS,,,94022,,40b07459fe7e5340
8568382,-122.100143,37.3612728,1150,BORDER RD,,LOS ALTOS,,,94024,,15e6b007a3285551
8568385,-122.0887663,37.3544399,931,DOLORES AVE,,LOS ALTOS,,,94024,,854d61b6a77b8e99
8568386,-122.0883198,37.3537434,941,FREMONT AVE,,LOS ALTOS,,,94024,,6156cd6183713bfa
8568402,-122.1125369,37.3667753,803,NASH RD,,LOS ALTOS,,,94024,,6e0f99a87f51dd2b
8568451,-122.0893994,37.3494628,1630,CORTE VIA,,LOS ALTOS,,,94024,,55b97aaef35f7e57
8568466,-122.0864427,37.3657826,1010,ALEGRE AVE,,LOS ALTOS,,,94024,,fd6ad9da2394dc05
8568474,-122.0653414,37.3397679,2067,EUGENIA WAY,,LOS ALTOS,,,94024,,0dbf4eda86d8797f
8568503,-122.1063215,37.3790979,176,OSAGE AVE,,LOS ALTOS,,,94022,,29ee8617033cded8
8568504,-122.0782151,37.356873,1424,GRANT RD,,LOS ALTOS,,,94022,,19740d4c8ac1bd71
8568510,-122.0657282,37.3552687,1711,LARKELLEN LN,,LOS ALTOS,,,94024,,651b555c03be28a1
8568513,-122.1055192,37.3416224,10450,BERKSHIRE DR,,LOS ALTOS,,,94024,,8df5e930f934f1b9
8568604,-122.0844975,37.3594224,1303,HOLLY AVE,,LOS ALTOS,,,94024,,103a1260a66f7881
8568649,-122.0971783,37.3793767,675,RIVIERA DR,,LOS ALTOS,,,94024,,ae909dc000a7b09f
8568651,-122.1099786,37.3801328,98,ELEANOR AVE,,LOS ALTOS,,,94022,,abfa5930f44cc208
8568679,-122.1171199,37.3912033,543,CHERRY AVE,,LOS ALTOS,,,94022,,40df793381d174c6
8568715,-122.0709729,37.3471173,1816,NEWCASTLE DR,,LOS ALTOS,,,94024,,87d9f3b9e666144b
8568720,-122.0650001,37.3581269,1341,HARWALT DR,,LOS ALTOS,,,94024,,6c68e2a6e758d9e3
8568749,-122.0957752,37.3789535,706,SUNSHINE DR,,LOS ALTOS,,,94024,,ea394b39691b53fc
8568774,-122.0870253,37.3514643,986,LUNDY LN,,LOS ALTOS,,,94024,,63e10bf4b771822a
8568775,-122.0871527,37.350639,969,LUNDY LN,,LOS ALTOS,,,94024,,6f21b6d29b227d16
8568777,-122.0869487,37.3508688,975,LUNDY LN,,LOS ALTOS,,,94024,,2da15f32f8a4570a
8568819,-122.1253914,37.3905121,450,JUANITA WAY,,LOS ALTOS,,,94022,,f059fed01edf2805
8568822,-122.0747809,37.3385948,22885,ASPEN DR,,LOS ALTOS,,,94024,,af1ba25e889d3dc3
8568832,-122.111824,37.3783934,108,HAWTHORNE AVE,,LOS ALTOS,,,94022,,c656624e3fc3b03a
8568839,-122.0761396,37.3363022,502,MIMOSA CT,,LOS ALTOS,,,94024,,96da617f016c665f
8568913,-122.0639606,37.3319797,10591,CRESTON DR,,LOS ALTOS,,,94024,,a4ee841e2fce8be8
8568917,-122.0935943,37.3546652,1440,ARBOR AVE,,LOS ALTOS,,,94024,,691c901460f8190b
8568935,-122.0671747,37.3318736,22430,AINSWORTH DR,,LOS ALTOS,,,94024,,97c4d83197069efe
8568944,-122.1245651,37.3887656,454,RAQUEL LN,,LOS ALTOS,,,94022,,d8c186eab086ece8
8568948,-122.0877963,37.3434954,980,ST JOSEPH AVE,,LOS ALTOS,,,94024,,b9215c5956aa8cc0
8568992,-122.1062372,37.3471749,11551,HILLPARK LN,,LOS ALTOS,,,94024,,0203018ff1391351
8569012,-122.0968822,37.3673,875,RIVERSIDE DR,,LOS ALTOS,,,94024,,3e0fcea5dda09a6e
8569045,-122.0881143,37.3565821,954,AURA CT,,LOS ALTOS,,,94024,,0b2a8ea4dc27ab25
8569047,-122.089733,37.3594695,919,ALTOS OAKS DR,,LOS ALTOS,,,94024,,8b5b70d6d3e92150
8569049,-122.0867471,37.3497937,949,LUNDY LN,,LOS ALTOS,,,94024,,fd4d4b32488e2cfc
8569050,-122.0869377,37.3503252,961,LUNDY LN,,LOS ALTOS,,,94024,,f4d95f1f96bf77a1
8569065,-122.087034,37.3446979,1020,ROBIN HOOD CT,,LOS ALTOS,,,94024,,ccf78b5512f18373
8569079,-122.097345,37.3879748,660,HOLLINGSWORTH DR,,LOS ALTOS,,,94022,,1709e390e1650c80
8569090,-122.121633,37.3962612,780,LOS ALTOS AVE,,LOS ALTOS,,,94022,,a34fb62af47d0182
8569112,-122.1177203,37.3874511,340,CHERRY AVE,,LOS ALTOS,,,94022,,a7986abeb313bc0f
8569118,-122.1138231,37.3702352,736,ORANGE AVE,,LOS ALTOS,,,94022,,4b6e0342102ccce1
8569125,-122.1220193,37.3981979,869,SANTA RITA AVE,,LOS ALTOS,,,94022,,c983e578c3236de1
8569131,-122.0628412,37.3315854,10574,CRESTON DR,,LOS ALTOS,,,94024,,d42b41e8fd86a6f8
8569166,-122.1167052,37.382224,54,VIEW ST,,LOS ALTOS,,,94022,,4e78db7f80d67533
8569171,-122.0964078,37.3684519,816,S SPRINGER RD,,LOS ALTOS,,,94024,,196c2029a8e0c5a1
8569264,-122.0747752,37.3552958,1413,RANCHITA DR,,LOS ALTOS,,,94024,,1aa303b4d26d82b7
8569297,-122.1036155,37.3739461,441,CUESTA DR,,LOS ALTOS,,,94024,,2c8006be3f79fed5
8569299,-122.1009237,37.3739362,561,CUESTA DR,,LOS ALTOS,,,94024,,67a8c4586efef7c4
8569305,-122.0999017,37.3419739,10977,TERRY WAY,,LOS ALTOS,,,94024,,5ead7743820d93fd
8569375,-122.115428,37.3841315,149,GARLAND WAY,,LOS ALTOS,,,94022,,e7c2d2c93879c2b0
8569428,-122.0707217,37.3531692,1565,WESSEX AVE,,LOS ALTOS,,,94024,,755c80fa706cb72c
8569447,-122.1093771,37.3964602,216,MARICH WAY,,LOS ALTOS,,,94022,,5925952c3d36d266
8569479,-122.0857564,37.3653936,1041,COVINGTON RD,,LOS ALTOS,,,94024,,a7aced08471a9df1
8569505,-122.0641187,37.3314804,10592,AINSWORTH DR,,LOS ALTOS,,,94024,,b0df5d545bb834ab
8569507,-122.0766114,37.3459455,1337,BELLWOOD CT,,LOS ALTOS,,,94024,,f9dae66ff27b8fbb
8569517,-122.1056973,37.3862483,270,SUNKIST LN,,LOS ALTOS,,,94022,,9915d97a3c83ed2f
8569518,-122.0848673,37.3607936,1049,DARTMOUTH LN,,LOS ALTOS,,,94024,,8bd93fe6ff175a89
8569531,-122.1088704,37.3905229,498,LOS NINOS WAY,,LOS ALTOS,,,94022,,908eebcd8120ddd7
8569558,-122.0836893,37.3639904,1107,MUIR WAY,,LOS ALTOS,,,94024,,87650da2da379ef5
8569575,-122.1137141,37.3717227,645,PALM AVE,,LOS ALTOS,,,94022,,b3de19604fd104ae
8569591,-122.1130059,37.3709633,676,PALM AVE,,LOS ALTOS,,,94022,,ea14da08b7467d2f
8569671,-122.1020505,37.3765633,336,RAMON DR,,LOS ALTOS,,,94024,,5226057ab53f99e9
8569763,-122.0974387,37.3630705,1112,BRIARWOOD CT,,LOS ALTOS,,,94024,,2ccbbd7a68b345ad
8569813,-122.0815766,37.3472658,1201,EVA AVE,,LOS ALTOS,,,94024,,437677c02fbd4f81
8569852,-122.1091364,37.3774662,226,HAWTHORNE AVE,,LOS ALTOS,,,94022,,0c50e46e33e7d0c2
8569857,-122.0660689,37.332457,22369,AINSWORTH DR,,LOS ALTOS,,,94024,,0b324e9217e722ec
8569874,-122.0693602,37.3437245,1932,ALFORD AVE,,LOS ALTOS,,,94024,,313c70ca0b674990
8569901,-122.0836016,37.3424864,1999,SCOTT LN,,LOS ALTOS,,,94024,,8750f016b8367099
8569913,-122.1197501,37.3950099,736,LINDEN AVE,,LOS ALTOS,,,94022,,b6d3170c3eeba35e
8569962,-122.0920377,37.3617073,805,BERRY AVE,,LOS ALTOS,,,94024,,a413c2e01b94a2fb
8569971,-122.1181325,37.3982131,190,PASA ROBLES AVE,,LOS ALTOS,,,94022,,eb86603691664766
8570029,-122.1065513,37.3945816,725,PANCHITA WAY,,LOS ALTOS,,,94022,,6248fb46ce681c20
8570034,-122.0624304,37.3313491,10566,CRESTON DR,,LOS ALTOS,,,94024,,0de173b563a76a6c
8570040,-122.0680905,37.3497791,1595,CLAY DR,,LOS ALTOS,,,94024,,54b57ffa2aaaf959
8570052,-122.0625764,37.3306,22180,ALDERNEY CT,,LOS ALTOS,,,94024,,7978f4ebd268faef
8570090,-122.0737326,37.3430506,1966,COLLEEN DR,,LOS ALTOS,,,94024,,55ae789eb6758268
8570091,-122.0689702,37.3408812,2013,FARNDON AVE,,LOS ALTOS,,,94024,,705484120f6785c1
8570106,-122.1023058,37.3743459,492,SAN LUIS AVE,,LOS ALTOS,,,94024,,b7bf0bb6206f9fc4
8570108,-122.0957939,37.3601784,1271,S SPRINGER RD,,LOS ALTOS,,,94024,,79e9b2ed0892a7ee
8570127,-122.1179912,37.3870847,165,SYLVIAN WAY,,LOS ALTOS,,,94022,,9af6b71bcf8ba4fc
8570138,-122.0865461,37.3619054,1110,RUNNYMEAD DR,,LOS ALTOS,,,94024,,0389ebd3776def76
8570172,-122.119699,37.3958264,764,LINDEN AVE,,LOS ALTOS,,,94022,,c84f9d0aabd8bdfa
8570195,-122.0649121,37.3585264,1715,HAWKINS DR,,LOS ALTOS,,,94024,,d5cc8d22aab85467
8570230,-122.1045291,37.3592791,436,KNOLL DR,,LOS ALTOS,,,94024,,b777ee9e4fe1bf39
8570395,-122.1035114,37.3716649,425,LOS PAJAROS CT,,LOS ALTOS,,,94024,,b812630661a5c040
8570408,-122.068796,37.3361865,2245,DEODARA DR,,LOS ALTOS,,,94024,,d1a7d76562ecc871
8570484,-122.1145642,37.3893926,11,MAYNARD CT,,LOS ALTOS,,,94022,,18f241e8ef430d08
8570536,-122.101259,37.3704706,706,CASA BONITA CT,,LOS ALTOS,,,94024,,17b2674f9e97a587
8570586,-122.1018402,37.3422083,10620,W LOYOLA DR,,LOS ALTOS,,,94024,,53858c81f90d5161
8570591,-122.0845596,37.3532659,1070,ROSEMONT AVE,,LOS ALTOS,,,94024,,feb5d131e8fa100e
8570594,-122.1087446,37.3890001,414,DISTEL DR,,LOS ALTOS,,,94022,,f1d7dc85861b0db3
8570623,-122.0984646,37.3841524,144,N EL MONTE AVE,,LOS ALTOS,,,94022,,fa53283e68dd5603
8570631,-122.0785624,37.3506769,1276,RICHARDSON AVE,,LOS ALTOS,,,94024,,c7ec20f670dbc013
8570684,-122.0781887,37.3640921,1049,E ROSE CIR,,LOS ALTOS,,,94024,,7261895a60fac9b1
8570724,-122.0916488,37.3463631,833,HIERRA CT,,LOS ALTOS,,,94024,,ac94e1c4662d11e4
8570725,-122.1216195,37.3948495,730,LOS ALTOS AVE,,LOS ALTOS,,,94022,,d1e71fc2eb3d5775
8570740,-122.1077186,37.367248,881,UNIVERSITY AVE,,LOS ALTOS,,,94024,,5e0c4321ce376c41
8570810,-122.1118972,37.3924701,104,ALVARADO AVE,,LOS ALTOS,,,94022,,9fcd97c7979c05ee
8570816,-122.119247,37.402134,1087,LOS ALTOS AVE,,LOS ALTOS,,,94022,,3ca00a3697b4d84b
8570888,-122.0976062,37.380714,662,CAMELLIA WAY,,LOS ALTOS,,,94024,,f56b59175cde4c4f
8570981,-122.1011898,37.3508671,1615,SHIRLEY AVE,,LOS ALTOS,,,94024,,e4a60af42ed59b57
8571046,-122.0862143,37.3397976,889,HIGHLANDS CIR,,LOS ALTOS,,,94024,,03295abaaf5f1c68
8571109,-122.1008461,37.3768984,318,S CLARK AVE,,LOS ALTOS,,,94022,,bbf2f746376aacfe
8571162,-122.1066256,37.3482794,11585,OLD RANCH RD,,LOS ALTOS,,,94024,,fbd165800a6ec83a
8571194,-122.1172845,37.3978485,147,DEL MONTE AVE,,LOS ALTOS,,,94022,,f4ff3704f8979f5d
8571195,-122.0723603,37.3435607,1962,NEWCASTLE DR,,LOS ALTOS,,,94024,,3c57d7a04c2aa837
8571250,-122.1147552,37.3856515,24,CORONADO AVE,,LOS ALTOS,,,94022,,2798421f160f756c
8571260,-122.0632466,37.3577053,1745,SELIG LN,,LOS ALTOS,,,94024,,45706c026fae3dc0
8571339,-122.1013964,37.3855463,226,N CLARK AVE,,LOS ALTOS,,,94022,,2bcd379671bca456
8571385,-122.1045088,37.3932554,652,CASITA WAY,,LOS ALTOS,,,94022,,ea4100649aacc461
8571386,-122.0845721,37.3574245,1375,HOLLY AVE,,LOS ALTOS,,,94024,,1fb5a77f4948a779
8571397,-122.0784705,37.3660303,930,DAMIAN WAY,,LOS ALTOS,,,94024,,06eec901f274a908
8571431,-122.089021,37.3640336,917,STANLEY AVE,,LOS ALTOS,,,94024,,7df9b2a1818d9214
8571442,-122.1072751,37.3501603,11666,WINDING WAY,,LOS ALTOS,,,94024,,07bd3f0a9e15761e
8571454,-122.0976914,37.3739199,657,CUESTA DR,,LOS ALTOS,,,94024,,5f951634d3ee0af6
8571480,-122.0843245,37.339749,872,HIGHLANDS CIR,,LOS ALTOS,,,94024,,24f89ac87699c68b
8571511,-122.1045702,37.3469368,11556,HILLPARK LN,,LOS ALTOS,,,94024,,5a336925dc3bba59
8571529,-122.1077839,37.3467829,23801,RAVENSBURY AVE,,LOS ALTOS,,,94024,,d56020921eb58e73
8571541,-122.102296,37.368594,485,HARRINGTON CT,,LOS ALTOS,,,94024,,8f34197acfcd4f9e
8571546,-122.1106814,37.3962747,151,E PORTOLA AVE,,LOS ALTOS,,,94022,,5f529ff750384aff
8571590,-122.0783247,37.3377973,1271,VIA HUERTA,,LOS ALTOS,,,94024,,fc803112ac747a81
8571594,-122.077169,37.3570354,1315,OAK AVE,,LOS ALTOS,,,94024,,3b1ff24021bad6aa
8571653,-122.0820178,37.36615,924,O'DELL WAY,,LOS ALTOS,,,94024,,9c20e9e4bee6b0cd
8571694,-122.1128059,37.3867221,260,TRIANON WAY,,LOS ALTOS,,,94022,,7ec330571caa68c1
8571702,-122.0983377,37.3770974,640,GIRALDA DR,,LOS ALTOS,,,94024,,55c33e2d86fa2cda
8571733,-122.1242217,37.3997249,455,TRAVERSO AVE,,LOS ALTOS,,,94022,,654a91f3c9c06f34
8571761,-122.1018107,37.3583219,1229,GRONWALL LN,,LOS ALTOS,,,94024,,8fa3c0ae4769b46f
8571787,-122.082103,37.3652974,964,BLACK MOUNTAIN CT,,LOS ALTOS,,,94024,,2f58318ca05c1475
8571820,-122.1137241,37.3979882,93,CHESTER CIR,,LOS ALTOS,,,94022,,70b4d6b2c64bb057
8571872,-122.0707938,37.3436723,1954,ANNETTE LN,,LOS ALTOS,,,94024,,2a39c050de2ccf96
8571877,-122.0890867,37.3435082,2066,WOODED GLEN WAY,,LOS ALTOS,,,94024,,4b9e442c960e0c78
8571880,-122.0884383,37.3526558,1600,FRONTERO AVE,,LOS ALTOS,,,94024,,3bd595ddf38f0119
8571882,-122.0674211,37.3446075,1630,HOLT AVE,,LOS ALTOS,,,94024,,c4fdd7a7e08e86fb
8571891,-122.0758903,37.3381816,485,ASPEN WAY,,LOS ALTOS,,,94024,,0c11664e3110f4a0
8571917,-122.1115839,37.3738067,108,CUESTA DR,4,LOS ALTOS,,,94022,,35b7970355fedf5e
8571951,-122.0646826,37.358903,1722,JOEL WAY,,LOS ALTOS,,,94024,,1e707316983b6ec3
8572066,-122.0800066,37.3579531,1225,EUREKA AVE,,LOS ALTOS,,,94024,,d39f5656a473de8f
8572106,-122.1027633,37.3744934,474,SAN LUIS AVE,,LOS ALTOS,,,94024,,2ecc1c34122b6ba4
8572157,-122.0774895,37.3464666,1316,ROSSWAY CT,,LOS ALTOS,,,94024,,e5b64fd0f3c2c648
8572200,-122.0695456,37.346815,1572,LANDELL CT,,LOS ALTOS,,,94024,,5f7f1e73d0c47265
8572202,-122.064642,37.3533521,1519,TIPTOE LN,,LOS ALTOS,,,94024,,88f665dfaf2274e9
8572236,-122.1243253,37.3957844,461,VAN BUREN ST,,LOS ALTOS,,,94022,,7a87071ad815011d
8572270,-122.0855171,37.3442322,1054,ST JOSEPH AVE,,LOS ALTOS,,,94024,,8ebffe7a8fe02568
8572515,-122.0748156,37.3484007,1395,MORTON AVE,,LOS ALTOS,,,94024,,ff5ea0bd41d9ca65
8572566,-122.08985,37.3493047,1623,CRESTVIEW DR,,LOS ALTOS,,,94024,,cf1f82bd82eb07b5
8572567,-122.0793956,37.3606285,1211,LAMMY PL,,LOS ALTOS,,,94024,,46c0b034dd45a362
8572591,-122.1110053,37.3729961,560,GABILAN ST,,LOS ALTOS,,,94022,,528aa548725eb845
8572604,-122.1070628,37.3508472,11745,WINDING WAY,,LOS ALTOS,,,94024,,3d2dfe3bdeaac7fc
8572606,-122.0739387,37.3574057,1400,PRITCHETT CT,,LOS ALTOS,,,94024,,1a6dc672c933fa58
8572614,-122.1250048,37.386985,340,BLUE OAK LN,,LOS ALTOS,,,94022,,350110b1fef0ec75
8572708,-122.0756622,37.3562398,1395,MARINOVICH WAY,,LOS ALTOS,,,94024,,54bac1df630caa60
8572816,-122.0667884,37.3469178,1825,FARNDON AVE,,LOS ALTOS,,,94024,,c488b45cf24bac31
8572828,-122.0654936,37.3442377,1711,ASKAM LN,,LOS ALTOS,,,94024,,9eea77050288442e
8572849,-122.0865383,37.3613753,1130,RUNNYMEAD DR,,LOS ALTOS,,,94024,,6ec5564d483b423f
8572856,-122.0917841,37.349001,810,LOYOLA DR,,LOS ALTOS,,,94024,,3b890cf32ea98e1b
8572860,-122.0734252,37.3426647,1998,NEWCASTLE DR,,LOS ALTOS,,,94024,,54286dffcd484288
8572866,-122.1205344,37.3864123,291,LIVE OAK LN,,LOS ALTOS,,,94022,,1648bf3079dff422
8572928,-122.1056532,37.3907621,520,ALICIA WAY,,LOS ALTOS,,,94022,,ebfceadbc7de31db
8573056,-122.0808214,37.3453944,1245,SANDALWOOD LN,,LOS ALTOS,,,94024,,066576204dff2361
8573057,-122.0752637,37.3404425,31,FARM RD,,LOS ALTOS,,,94024,,d2a2961b9ef1f42c
8573115,-122.1108508,37.3746051,456,GABILAN ST,2,LOS ALTOS,,,94022,,07c6613cd300dfd9
8573138,-122.0695936,37.3304321,2450,N FOOTHILL BLVD,,LOS ALTOS,,,94024,,c0de1e366585ce3c
8573162,-122.0736362,37.3443539,1922,KAY DR,,LOS ALTOS,,,94024,,e0d017e608b7b358
8573167,-122.0766645,37.3419399,15,FARM RD,,LOS ALTOS,,,94024,,dc080b218762d269
8573205,-122.083815,37.3528749,1580,OAKHURST AVE,,LOS ALTOS,,,94024,,16cab4bc82f6e81d
8573219,-122.0954706,37.379356,713,SUNSHINE DR,,LOS ALTOS,,,94024,,8de1b044ccee35e7
8573277,-122.1222502,37.4024826,377,LUNADA DR,,LOS ALTOS,,,94022,,4fe120abb44423de
8573502,-122.1166969,37.3819989,44,VIEW ST,,LOS ALTOS,,,94022,,50b16696134e159f
8573542,-122.1131897,37.397317,52,CHESTER CIR,,LOS ALTOS,,,94022,,2e3c5e1a2030f3fb
8573599,-122.1026794,37.3577524,24141,YOUNG CT,,LOS ALTOS,,,94024,,5a5abc77a4e14255
8573615,-122.1091392,37.3930903,215,ALVARADO AVE,,LOS ALTOS,,,94022,,641cc72f19d49e43
8573648,-122.1135156,37.3991777,916,SHERWOOD AVE,,LOS ALTOS,,,94022,,4246d55f98d839bb
8573803,-122.0942112,37.3556786,1418,ARBOR AVE,,LOS ALTOS,,,94024,,1f92483dcc9234b9
8573864,-122.0736204,37.3396817,527,PINECREST DR,,LOS ALTOS,,,94024,,42dc3fe915835497
8573990,-122.1109504,37.3959799,146,E PORTOLA AVE,,LOS ALTOS,,,94022,,291b2bf0ffa6c400
8573999,-122.0800841,37.3411192,1222,WOODVIEW TER,,LOS ALTOS,,,94024,,9bc7cb72bd3c6924
8574000,-122.0816172,37.3408953,2090,STONEHAVEN DR,,LOS ALTOS,,,94024,,7da7a777e1f4d574
8574058,-122.0996127,37.3631864,1098,PARMA WAY,,LOS ALTOS,,,94024,,3dd60d6011b652ae
8574061,-122.0739125,37.3408095,5350,ARBORETUM DR,,LOS ALTOS,,,94024,,35f5166ecafa2670
8574062,-122.0967342,37.3753503,677,BENVENUE AVE,,LOS ALTOS,,,94024,,1b97828c9a654c07
8574068,-122.0663407,37.3444379,1908,FALLEN LEAF LN,,LOS ALTOS,,,94024,,44617c2d345e075e
8574104,-122.0697384,37.3433843,1944,ALFORD AVE,,LOS ALTOS,,,94024,,2f513bb18f4fbac3
8574114,-122.1274769,37.3923703,535,PINE LN,,LOS ALTOS,,,94022,,f8b5c08c1742867d
8574126,-122.0712861,37.3551366,1484,WESSEX AVE,,LOS ALTOS,,,94024,,6b5941342dd64e5c
8574132,-122.0826554,37.3549892,1111,LISA LN,,LOS ALTOS,,,94024,,d4e3c148f904cea0
8574190,-122.110335,37.37367,525,GABILAN ST,,LOS ALTOS,,,94022,,162e02058f1e190a
8574202,-122.1049946,37.3668513,375,FREMONT AVE,,LOS ALTOS,,,94024,,8e4445ba0589c500
8574242,-122.0767924,37.3574552,1399,GRANT CT,,LOS ALTOS,,,94024,,7b3093ec1f1849c9
8574334,-122.0869265,37.3469271,1050,CROOKED CREEK DR,,LOS ALTOS,,,94024,,d15041ba16205956
8574406,-122.0827719,37.3655191,975,HAYMAN PL,,LOS ALTOS,,,94024,,d7e6791076b7fd93
8574419,-122.1144484,37.3765553,350,S SAN ANTONIO RD,,LOS ALTOS,,,94022,,273a2d30d9ed8d98
8574431,-122.0822706,37.3451057,1922,LAVER CT,,LOS ALTOS,,,94024,,2eec85988a8279b3
8574454,-122.0846222,37.3396708,876,HIGHLANDS CIR,,LOS ALTOS,,,94024,,75778ff5439558a5
8574490,-122.0963277,37.3632586,1098,S SPRINGER RD,,LOS ALTOS,,,94024,,4f1bcc4154c0fc20
8574493,-122.1259184,37.3916283,560,TORWOOD LN,,LOS ALTOS,,,94022,,232f65f679f78426
8574508,-122.0839062,37.3601007,1180,BUCKINGHAM DR,,LOS ALTOS,,,94024,,801dfdc6e8215b38
8574537,-122.0752566,37.3515289,1380,BRIGHT OAKS CT,,LOS ALTOS,,,94024,,54b27ad1075e0f64
8574698,-122.0972872,37.3823747,668,MILLS AVE,,LOS ALTOS,,,94022,,3e2249db56f81574
8574703,-122.1072105,37.3741853,305,CUESTA DR,,LOS ALTOS,,,94024,,4cb97139e9be66c9
8574720,-122.1030895,37.3584225,1215,GRONWALL LN,,LOS ALTOS,,,94024,,18eba48cdd1aec40
8574747,-122.0970793,37.3802185,673,SPRINGER TER,,LOS ALTOS,,,94024,,ecc06952ec67eee0
8574791,-122.1022178,37.3792255,505,CLARK CT,,LOS ALTOS,,,94024,,807f57cc89341d3b
8574797,-122.1080768,37.3907618,517,LOS NINOS WAY,,LOS ALTOS,,,94022,,23a3584e838fed88
8574987,-122.093802,37.3626228,754,EDGE LN,,LOS ALTOS,,,94024,,ba6f6c98e4e1387b
8575014,-122.0912382,37.3624626,1146,GOLDEN WAY,,LOS ALTOS,,,94024,,78a1647d3b2ce3f0
8575054,-122.1130614,37.3701879,752,ORANGE AVE,,LOS ALTOS,,,94022,,ef8a99d5db7dd51f
8575068,-122.1106837,37.3981398,17,LOS ALTOS SQ,,LOS ALTOS,,,94022,,f31a555ab947b312
8575081,-122.0872114,37.3635747,990,STANLEY AVE,,LOS ALTOS,,,94024,,6fd79eface9b943e
8575106,-122.0796007,37.3372911,2205,SIERRA VENTURA DR,,LOS ALTOS,,,94024,,280e2ed0ce574656
8575125,-122.0992159,37.3687625,621,HARRINGTON AVE,,LOS ALTOS,,,94024,,f13d6900d38dcd7e
8575191,-122.0968427,37.3735029,670,CUESTA DR,,LOS ALTOS,,,94024,,a3c5414864ac5c73
8575241,-122.0867404,37.3645699,1011,LOMA PRIETA CT,,LOS ALTOS,,,94024,,fed391d02470bbf4
8575249,-122.1111388,37.3831714,131,ANGELA DR,,LOS ALTOS,,,94022,,5ec1aeb4f12fef9c
8575274,-122.1076064,37.3658734,914,STAGI CT,,LOS ALTOS,,,94024,,169b446005cbabd3
8575311,-122.0883871,37.3547798,948,LORAINE AVE,,LOS ALTOS,,,94024,,c3ae20a481ce01bc
8575320,-122.0791676,37.3555389,1271,PATLEN DR,,LOS ALTOS,,,94024,,4306e67427c758b8
8575326,-122.1114889,37.3845592,177,FREDERICK CT,,LOS ALTOS,,,94022,,45f27c21ea794b6c
8575345,-122.0855654,37.3460198,1080,NOTTINGHAM WAY,,LOS ALTOS,,,94024,,93e1274a72503bf7
8575367,-122.0933642,37.3838812,766,VISTA GRANDE AVE,,LOS ALTOS,,,94024,,30cc085ade2d4f57
8575382,-122.1007546,37.3697386,735,CASA BONITA CT,,LOS ALTOS,,,94024,,81af60d72c53bdde
8575417,-122.0810426,37.3563377,1200,HERITAGE CT,,LOS ALTOS,,,94024,,ae663afb50b66589
8575446,-122.1201149,37.3819957,5,HAMPTON CT,,LOS ALTOS,,,94022,,40bb8e979385a81e
8575563,-122.1216718,37.3966205,340,W PORTOLA AVE,,LOS ALTOS,,,94022,,4a2640f048f542b5
8575565,-122.0649189,37.3455446,1730,PENNY WAY,,LOS ALTOS,,,94024,,613e5f35fc6a27f5
8575624,-122.09634,37.3670519,890,S SPRINGER RD,,LOS ALTOS,,,94024,,83893cc695375cc9
8575631,-122.1199499,37.3710571,681,MANRESA LN,,LOS ALTOS,,,94022,,4d813165b3e7989e
8575643,-122.1131411,37.3988917,905,SHERWOOD AVE,,LOS ALTOS,,,94022,,655dc4c04cc9ff16
8575649,-122.1060359,37.3840654,158,SUNKIST LN,,LOS ALTOS,,,94022,,96b85053e4155086
8575652,-122.1252651,37.3888191,466,RAQUEL LN,,LOS ALTOS,,,94022,,90cd9f495b702d5d
8575760,-122.1124067,37.3889636,412,VALENCIA DR,,LOS ALTOS,,,94022,,6cd8234ff2e413fd
8575765,-122.0717455,37.3565286,1435,MARLBAROUGH AVE,,LOS ALTOS,,,94024,,ab998140993db10e
8575826,-122.0986011,37.3839335,129,EL MONTE CT,,LOS ALTOS,,,94022,,e45326b08a724fab
8575874,-122.0934223,37.3787026,759,SUNSHINE DR,,LOS ALTOS,,,94024,,fa827eea4e7ea35e
8575915,-122.1177842,37.3756249,401,UNIVERSITY AVE,,LOS ALTOS,,,94022,,090e424476298dab
8575939,-122.1209994,37.4032333,304,LANGTON AVE,,LOS ALTOS,,,94022,,de73af6cea2aa465
8575951,-122.0651672,37.3549328,1730,LARKELLEN LN,,LOS ALTOS,,,94024,,fe6d7198f5fa111f
8575956,-122.0781056,37.3503891,1676,GRANT RD,,LOS ALTOS,,,94024,,e02c77340d2cda56
8575987,-122.0791528,37.3574427,1240,THORPE CT,,LOS ALTOS,,,94024,,5a43aa0030d0fe8c
8576021,-122.09679,37.3814998,694,CORAL CT,,LOS ALTOS,,,94024,,248beac50c362257
8576295,-122.1115717,37.3986028,10,LOS ALTOS SQ,,LOS ALTOS,,,94022,,10ef948655260f91
8576358,-122.1199959,37.4012611,261,MARGARITA CT,,LOS ALTOS,,,94022,,0c1be1b37e346635
8576408,-122.0968824,37.3679537,835,RIVERSIDE DR,,LOS ALTOS,,,94024,,e33b575d220483fb
8576493,-122.0677016,37.3414146,2024,CRIST DR,,LOS ALTOS,,,94024,,98151155835de43e
8576512,-122.1123224,37.3751727,430,LASSEN ST,4,LOS ALTOS,,,94022,,ff9ab8577398082e
8576643,-122.0913965,37.3459875,830,HIERRA CT,,LOS ALTOS,,,94024,,b032b36cb9188643
8576690,-122.116159,37.3676456,68,BAY TREE LN,,LOS ALTOS,,,94022,,48dd683d36bc1f66
8576743,-122.1192801,37.3830208,234,MT HAMILTON AVE,,LOS ALTOS,,,94022,,81ba346b3d87d0df
8576754,-122.0971677,37.3788824,678,RIVIERA DR,,LOS ALTOS,,,94024,,d670918aaeb3a60d
8576863,-122.0827088,37.3610782,1246,CARMEL TER,,LOS ALTOS,,,94024,,29448be4773dd597
8576890,-122.1046642,37.3730967,395,ARBOLEDA DR,,LOS ALTOS,,,94024,,940b367532ee3110
8576950,-122.0656359,37.349551,1708,CHRISTINA DR,,LOS ALTOS,,,94024,,fd90f52381c3d11f
8577007,-122.0710674,37.3501403,1516,RICHARDSON AVE,,LOS ALTOS,,,94024,,66c848c5aef7eb8f
8577042,-122.0819833,37.3447003,1946,LAVER CT,,LOS ALTOS,,,94024,,981f9b54f3e4ca84
8577066,-122.0968267,37.363738,680,OAKWOOD CT,,LOS ALTOS,,,94024,,2c7f07299b51df8b
8577187,-122.1180425,37.374995,435,UNIVERSITY AVE,,LOS ALTOS,,,94022,,cb5c6dee5b094450
8577316,-122.1053689,37.3841048,159,SUNKIST LN,,LOS ALTOS,,,94022,,15d877358aa3e5d1
8577420,-122.0793434,37.3358635,2270,SIERRA VENTURA DR,,LOS ALTOS,,,94024,,26123cfc3071fe3c
8577426,-122.0673543,37.3443721,1906,FARNDON AVE,,LOS ALTOS,,,94024,,a5122054d301747d
8577447,-122.0851872,37.3531695,1050,ROSEMONT AVE,,LOS ALTOS,,,94024,,ba6766557064194c
8577466,-122.1061376,37.3703874,247,COVINGTON RD,,LOS ALTOS,,,94024,,b944b3134f84c400
8577694,-122.0942833,37.3625997,744,EDGE LN,,LOS ALTOS,,,94024,,2c87c2cb1a1cb41d
8577745,-122.0935282,37.35318,1474,TOPAR AVE,,LOS ALTOS,,,94024,,372ae681d7abdf53
8577747,-122.069266,37.3394022,2093,CRIST DR,,LOS ALTOS,,,94024,,71934cfaa19c077f
8577751,-122.1044043,37.3757373,407,BENVENUE AVE,,LOS ALTOS,,,94024,,da132a2dc53233fe
8577753,-122.1024915,37.3841222,149,DOUD DR,,LOS ALTOS,,,94022,,debbeb9251fe0d11
8577813,-122.0826445,37.3479766,1200,MONTE VERDE CT,,LOS ALTOS,,,94024,,0cf6de088284d9bf
8577912,-122.0977548,37.3644945,1032,RIVERSIDE DR,,LOS ALTOS,,,94024,,1451b415b5bdf2c7
8577926,-122.0750741,37.3562532,1403,MARINOVICH WAY,,LOS ALTOS,,,94024,,8cf959dd69cbd9c5
8578030,-122.1147869,37.3847281,186,N SAN ANTONIO RD,,LOS ALTOS,,,94022,,f191a923c9062959
8578045,-122.0697167,37.3384183,2161,DEODARA DR,,LOS ALTOS,,,94024,,27fe268a2f736d05
8578177,-122.1169601,37.3936777,671,TEMPLEBAR WAY,,LOS ALTOS,,,94022,,1f429ba9897cbe0f
8578245,-122.0923344,37.3843429,789,VISTA GRANDE AVE,,LOS ALTOS,,,94022,,fd8221bc8c13ecec
8578397,-122.0987668,37.358715,600,MAGDALENA AVE,,LOS ALTOS,,,94024,,8610eeea0311a866
8578458,-122.0781436,37.3538167,1293,ESTATE DR,,LOS ALTOS,,,94024,,ce6f2bc6f2787699
8578506,-122.0678988,37.3460569,1857,ALFORD AVE,,LOS ALTOS,,,94024,,c5707631f68a9bd2
8578596,-122.1209689,37.4021487,311,LUNADA DR,,LOS ALTOS,,,94022,,1abbc23b2604bac4
8578888,-122.0977032,37.3784933,655,SAN MARTIN PL,,LOS ALTOS,,,94024,,07e59ec570bdf667
8578963,-122.1139818,37.3989213,895,N SAN ANTONIO RD,,LOS ALTOS,,,94022,,8766287a2de0d218
8579055,-122.119747,37.3799488,108,1ST ST,,LOS ALTOS,,,94022,,9e1e221e5a13027a
8579056,-122.0871989,37.3531093,995,A ST,,LOS ALTOS,,,94024,,711d865541743cb8
8579239,-122.1170703,37.3790573,295,STATE ST,,LOS ALTOS,,,94022,,8c65cf8b1b93374d
8579387,-122.1146118,37.3794977,149,MAIN ST,,LOS ALTOS,,,94022,,9e3e20b99f0b7f52
8579477,-122.1139818,37.3989213,897,N SAN ANTONIO RD,,LOS ALTOS,,,94022,,786d351ce4c3fce1
8579546,-122.1164061,37.3793796,209,STATE ST,,LOS ALTOS,,,94022,,236dab3421e8d251
8579550,-122.1158085,37.3784869,215,MAIN ST,,LOS ALTOS,,,94022,,840ee396f1025162
8579555,-122.1181067,37.3790732,358,STATE ST,,LOS ALTOS,,,94022,,4b3c2eeed072d15b
8579631,-122.1139593,37.3997896,981,N SAN ANTONIO RD,,LOS ALTOS,,,94022,,a22f115501a8ea75
8579723,-122.1167768,37.3771083,307,1ST ST,,LOS ALTOS,,,94022,,c6f012811a1854b6
8579774,-122.1147807,37.3791905,163,MAIN ST,,LOS ALTOS,,,94022,,526c138bef60f36a
8579815,-122.1145535,37.3799847,121,MAIN ST,,LOS ALTOS,,,94022,,f1db12dcefb5d82a
8580821,-122.0952025,37.3793761,721,SUNSHINE DR,,LOS ALTOS,,,94024,,35ec0d7f12983e52
8580824,-122.0747699,37.3439486,1936,COLLEEN DR,,LOS ALTOS,,,94024,,ea13a9cf98180ae9
8580826,-122.0757577,37.3519589,1365,BRIGHT OAKS CT,,LOS ALTOS,,,94024,,890865484bb9a582
8580846,-122.0744816,37.3532836,1559,SIESTA DR,,LOS ALTOS,,,94024,,6e1c0a5483a33fea
8580859,-122.0794975,37.3410338,1238,WOODVIEW TER,,LOS ALTOS,,,94024,,f2f4310e5478e791
8580879,-122.0987825,37.3756877,629,BENVENUE AVE,,LOS ALTOS,,,94024,,572b69e6fb0516a2
8580897,-122.0672206,37.3401328,2019,EL SERENO AVE,,LOS ALTOS,,,94024,,afeecec83d4eec90
8580916,-122.0698485,37.3353593,1564,HONEYSUCKLE PL,,LOS ALTOS,,,94024,,e9cd05636666425e
8580981,-122.118633,37.3863589,180,SYLVIAN WAY,,LOS ALTOS,,,94022,,3e063ff870a53481
8580994,-122.0997018,37.3612404,1190,BORDER RD,,LOS ALTOS,,,94024,,974631e65f368848
8580998,-122.0725164,37.3344665,1450,CEDAR PL,,LOS ALTOS,,,94024,,fe4965929ee7e47f
8581000,-122.0997431,37.3834125,107,HIGGINS AVE,,LOS ALTOS,,,94022,,ab00d61dfd41d116
8581009,-122.1127716,37.3747765,447,TYNDALL ST,,LOS ALTOS,,,94022,,5c41e20d4abcd231
8581013,-122.1066528,37.3740199,321,CUESTA DR,,LOS ALTOS,,,94024,,23df0f310b1eefab
8581031,-122.0896849,37.3603026,1261,RUSSELL AVE,,LOS ALTOS,,,94024,,fee1ab16c8a9c76c
8581035,-122.1042104,37.3869005,301,AVALON DR,,LOS ALTOS,,,94022,,1cb46dff001a036f
8581039,-122.0792605,37.3560266,1236,HERITAGE CT,,LOS ALTOS,,,94024,,0b49b325969becab
8581053,-122.1132323,37.3862246,221,CHATEAU DR,,LOS ALTOS,,,94022,,c2ce3623ad62a771
8581063,-122.0839025,37.3615456,1089,DARTMOUTH LN,,LOS ALTOS,,,94024,,e5f75c3573a2b3b2
8581064,-122.0833591,37.3610777,1141,BUCKINGHAM DR,,LOS ALTOS,,,94024,,4d3e23eb4aabdd98
8581082,-122.0992553,37.3734975,610,CUESTA DR,,LOS ALTOS,,,94024,,b0a6a401bb3d0f5f
8581083,-122.0945829,37.3793735,735,SUNSHINE DR,,LOS ALTOS,,,94024,,249b317f21d47567
8581107,-122.0780987,37.3481065,1288,THURSTON AVE,,LOS ALTOS,,,94024,,9ae6833ce598850e
8581126,-122.1204784,37.391764,585,LOS ALTOS AVE,,LOS ALTOS,,,94022,,4206856cffa8b94e
8581160,-122.0871043,37.3415326,920,YORKSHIRE DR,,LOS ALTOS,,,94024,,faf169dc5a990002
8581161,-122.1220878,37.3866134,368,TOYON AVE,,LOS ALTOS,,,94022,,2d10384bf0202092
8581171,-122.0845478,37.3527112,1065,FREMONT AVE,,LOS ALTOS,,,94024,,9ec70e1a6cbbcdfe
8581182,-122.0681295,37.3524568,1620,WAKEFIELD TER,,LOS ALTOS,,,94024,,1f5827139a38e90d
8581206,-122.0797134,37.3619867,1151,LAMMY PL,,LOS ALTOS,,,94024,,11fa2c2a431e046c
8581209,-122.0976941,37.3658386,662,ARROWOOD CT,,LOS ALTOS,,,94024,,1ed2982d92485bac
8581251,-122.0716909,37.3518102,1616,RANDOLPH PKWY,,LOS ALTOS,,,94024,,3fec8ff74fc1def0
8581258,-122.0706407,37.3512804,1634,PARKHILLS AVE,,LOS ALTOS,,,94024,,a2c498e346fec171
8581266,-122.1002457,37.3731352,591,ARBOLEDA DR,,LOS ALTOS,,,94024,,b8371dedaa71b6db
8581268,-122.1090674,37.3752229,214,LYELL ST,,LOS ALTOS,,,94022,,88956ecb31aac004
8581270,-122.0717397,37.356254,1447,WESSEX AVE,,LOS ALTOS,,,94024,,b0f023e9d2e33f31
8581278,-122.0637883,37.357775,1733,SELIG LN,,LOS ALTOS,,,94024,,1d6182509e84fc13
8581285,-122.0983499,37.365283,640,COVINGTON RD,,LOS ALTOS,,,94024,,df3271ded8b581f1
8581289,-122.0866672,37.3468701,1045,CROOKED CREEK DR,,LOS ALTOS,,,94024,,1cdd218d8c3a2fd2
8581295,-122.082078,37.350146,1165,MIGUEL AVE,,LOS ALTOS,,,94024,,84d25eb6bd943bae
8581307,-122.1198246,37.3835269,245,MT HAMILTON AVE,,LOS ALTOS,,,94022,,be95f14ad74bdd4b
8581326,-122.10957,37.375227,200,LYELL ST,,LOS ALTOS,,,94022,,88b990389dc507ff
8581335,-122.1076337,37.3607473,307,COSTELLO DR,,LOS ALTOS,,,94024,,d8116df2b3cd7a53
8581340,-122.1063301,37.3860584,255,ALICIA WAY,,LOS ALTOS,,,94022,,d5f74145ab04a104
8581342,-122.07761,37.340768,1274,ST MARK CT,,LOS ALTOS,,,94024,,23d26eea20ee4cc9
8581352,-122.0834537,37.3470317,1395,MONTCLAIRE WAY,,LOS ALTOS,,,94024,,5a27cfedf9bee030
8581458,-122.1179504,37.4036325,4388,EL CAMINO REAL,366,LOS ALTOS,,,94022,,c2b95f2e67e5feb4
8581471,-122.1151566,37.3820833,1,W EDITH AVE,A204,LOS ALTOS,,,94022,,92631f00689fd4c9
8581499,-122.1182049,37.4034559,4388,EL CAMINO REAL,49,LOS ALTOS,,,94022,,bb90dad1177ce238
8581500,-122.1185954,37.403684,4388,EL CAMINO REAL,89,LOS ALTOS,,,94022,,448f7089c92b05c9
8581578,-122.1150331,37.3824229,1,W EDITH AVE,B208,LOS ALTOS,,,94022,,7055715dc62b07cc
8581884,-122.1177617,37.4038218,4388,EL CAMINO REAL,238,LOS ALTOS,,,94022,,03074ee5cbd63243
8582070,-122.1244087,37.3945554,461,CAVALIER CT,,LOS ALTOS,,,94022,,ff93f5331662be26
8582076,-122.0913006,37.3540838,1507,ARBOR AVE,,LOS ALTOS,,,94024,,6d5178c05628c5d3
8582097,-122.1040574,37.3584642,24157,SUMMERHILL AVE,,LOS ALTOS,,,94024,,dc01e799678bfb5b
8582118,-122.0809855,37.3388437,2131,VIA ESCALERA,,LOS ALTOS,,,94024,,0328c1c0c04adac3
8582143,-122.0927399,37.3825327,782,RAYMUNDO AVE,,LOS ALTOS,,,94024,,23009a01e60401ed
8582147,-122.1251567,37.3896941,460,SAN DOMINGO WAY,,LOS ALTOS,,,94022,,aa91e0590de2d654
8582149,-122.1119847,37.3855221,84,DIOR TER,,LOS ALTOS,,,94022,,f7394c8f9666540d
8582173,-122.0844692,37.3652269,990,EASTWOOD PL,,LOS ALTOS,,,94024,,06ce0a247f87d669
8582174,-122.1069497,37.3868602,304,ALICIA WAY,,LOS ALTOS,,,94022,,f71bbdcef375321a
8582274,-122.1199456,37.402432,1093,LOS ALTOS AVE,,LOS ALTOS,,,94022,,cafb6b7476893325
8582275,-122.0906663,37.3470824,860,MORA DR,,LOS ALTOS,,,94024,,4b55b6a3c35a8430
8582277,-122.0962698,37.385347,230,N SPRINGER RD,,LOS ALTOS,,,94024,,ee3befb53ba29ef0
8582297,-122.098035,37.3705118,710,ROSE LN,,LOS ALTOS,,,94024,,b767aefb78bc4ecb
8582301,-122.0910637,37.3583089,846,CLINTON RD,,LOS ALTOS,,,94024,,f34e68e0a69ff653
8582342,-122.0867904,37.3500796,955,LUNDY LN,,LOS ALTOS,,,94024,,26c85ab887532885
8582347,-122.0760836,37.3501196,1317,ENSENADA WAY,,LOS ALTOS,,,94024,,5249a80ff3634e17
8582386,-122.0803888,37.3599147,1219,PORTLAND AVE,,LOS ALTOS,,,94024,,ddb35d63f12b2ffd
8582390,-122.0725771,37.3491174,1465,BEN ROE AVE,,LOS ALTOS,,,94024,,f44d05c80f98cdd0
8582419,-122.0692173,37.3446192,1903,ANNETTE LN,,LOS ALTOS,,,94024,,a6bda709482c2100
8582439,-122.12163,37.3856638,340,CHAMISAL AVE,,LOS ALTOS,,,94022,,0c75a56bfe729cd3
8582469,-122.100426,37.3616316,1140,BORDER RD,,LOS ALTOS,,,94024,,6c36a03205ae4cc9
8582503,-122.1167332,37.3898764,471,CHERRY AVE,,LOS ALTOS,,,94022,,c49ad3955005994d
8582515,-122.0695089,37.35293,1569,WAKEFIELD TER,,LOS ALTOS,,,94024,,479db62ce7e82771
8582517,-122.0656781,37.3537009,1540,TIPTOE LN,,LOS ALTOS,,,94024,,d938a012f2cafa7a
8582519,-122.0726009,37.3554788,1457,RANCHITA DR,,LOS ALTOS,,,94024,,8cb137f0802d5af1
8582546,-122.1032863,37.3794554,449,RINCONADA CT,,LOS ALTOS,,,94022,,5587ae2bf91e9cdf
8582568,-122.1120251,37.3979154,34,LOS ALTOS SQ,,LOS ALTOS,,,94022,,c3a99de2bf9e1da2
8582622,-122.0963748,37.3659417,952,S SPRINGER RD,,LOS ALTOS,,,94024,,fc86779bff7955e5
8582662,-122.1155866,37.3914579,23,ALMA CT,,LOS ALTOS,,,94022,,c5252444d06c4306
8582706,-122.0805449,37.3389925,2156,SIERRA VENTURA DR,,LOS ALTOS,,,94024,,8558dd62399e5e88
8582845,-122.1067914,37.350546,11725,WINDING WAY,,LOS ALTOS,,,94024,,6cf21c91d8b7bf46
8582855,-122.098531,37.3731036,639,ARBOLEDA DR,,LOS ALTOS,,,94024,,918ce6cebea8ae08
8582874,-122.1154143,37.3769706,321,2ND ST,,LOS ALTOS,,,94022,,9ed8639d93107824
8582877,-122.1134911,37.3888003,20,PARSONS WAY,,LOS ALTOS,,,94022,,a91ba7d91db7e0bb
8582941,-122.0662121,37.3433903,1940,FALLEN LEAF LN,,LOS ALTOS,,,94024,,e5786ab8733eac7a
8583049,-122.0839311,37.3429379,1990,SCOTT LN,,LOS ALTOS,,,94024,,f06049af203bce1c
8583109,-122.1191695,37.4001491,233,LOUCKS AVE,,LOS ALTOS,,,94022,,1d7246d4531cdde0
8583120,-122.0656081,37.3511775,1637,FALLEN LEAF LN,,LOS ALTOS,,,94024,,a385fb11d90fac1c
8583121,-122.0821502,37.3434839,1984,KNOLLWOOD LN,,LOS ALTOS,,,94024,,1e58135a797e218e
8583233,-122.0950661,37.3816935,722,ARROYO RD,,LOS ALTOS,,,94024,,76a725ec613d2130
8583239,-122.0837018,37.3649022,1107,COVINGTON RD,,LOS ALTOS,,,94024,,3d5f3566ab895762
8583243,-122.0999456,37.3782457,603,HAWTHORNE AVE,,LOS ALTOS,,,94024,,d1e52339b96c5466
8583244,-122.0906307,37.3447645,796,TERRACE DR,,LOS ALTOS,,,94024,,91910fe73e312899
8583275,-122.0711738,37.3512706,1637,RANDOLPH PKWY,,LOS ALTOS,,,94024,,f8eb90e5139b713b
8583392,-122.0878683,37.3551384,973,LORAINE AVE,,LOS ALTOS,,,94024,,4e1b12cb6fa819e7
8583430,-122.0990199,37.3864522,625,JAY ST,,LOS ALTOS,,,94022,,34e64a33742707f7
8583447,-122.1227224,37.3983859,872,SANTA RITA AVE,,LOS ALTOS,,,94022,,c2e05519ef3d8a4c
8583496,-122.104203,37.3857551,237,AVALON DR,,LOS ALTOS,,,94022,,93507878b9f2ae40
8583540,-122.1030136,37.3409342,10490,W LOYOLA DR,,LOS ALTOS,,,94024,,fb3ea7dc8a06b7f1
8583704,-122.0649773,37.3588469,1321,HARWALT DR,,LOS ALTOS,,,94024,,1ec4ad8ebbfc939f
8583708,-122.0746794,37.3587499,1405,MIRAVALLE AVE,,LOS ALTOS,,,94024,,ec2b05281594702a
8583716,-122.1127822,37.3924799,64,ALVARADO AVE,,LOS ALTOS,,,94022,,5c3c6987c7991473
8583728,-122.1184765,37.3800927,110,2ND ST,,LOS ALTOS,,,94022,,2a07554035fc2ac7
8583730,-122.0710461,37.3442156,1927,NEWCASTLE DR,,LOS ALTOS,,,94024,,00232abe15dab17d
8583733,-122.0680281,37.33156,10590,BAXTER AVE,,LOS ALTOS,,,94024,,5088f1ad9a231b84
8583737,-122.083998,37.3407368,920,OXFORD DR,,LOS ALTOS,,,94024,,b88f28c0bc6d6053
8583755,-122.0802496,37.3561011,1218,HERITAGE CT,,LOS ALTOS,,,94024,,3b61f2b688dc092d
8583831,-122.0738085,37.3469803,1819,AUSTIN AVE,,LOS ALTOS,,,94024,,59cd0a74853fa466
8583853,-122.1100909,37.3778376,260,ELEANOR AVE,,LOS ALTOS,,,94022,,ede36470b16e8032
8583854,-122.1158607,37.3915558,29,ALMA CT,,LOS ALTOS,,,94022,,9ba7cf01edfc8c26
8583878,-122.0773309,37.3422166,19,FARM RD,,LOS ALTOS,,,94024,,ee1e0b323814df96
8583950,-122.1176495,37.3752861,400,ORANGE AVE,,LOS ALTOS,,,94022,,8237c4f9c89271e8
8584012,-122.0967499,37.3714138,660,S SPRINGER RD,,LOS ALTOS,,,94024,,ab69055edfd65d3f
8584034,-122.1233675,37.3892629,401,RAQUEL LN,,LOS ALTOS,,,94022,,3018903cd64f8b9e
8584058,-122.1124216,37.3867824,261,TRIANON WAY,,LOS ALTOS,,,94022,,f1b4e88134c845e5
8584091,-122.1174676,37.3734015,541,UNIVERSITY AVE,,LOS ALTOS,,,94022,,b7f9099f5a061eae
8584099,-122.1027763,37.371892,470,LOS PAJAROS CT,,LOS ALTOS,,,94024,,d7cf9895d8a39aa0
8584107,-122.0759606,37.3570104,1393,OAK AVE,,LOS ALTOS,,,94024,,e575fb9f2af99296
8584118,-122.0755561,37.3577328,1381,PRITCHETT CT,,LOS ALTOS,,,94024,,e6c6ca837ed89660
8584210,-122.0679019,37.3473507,1809,ALFORD AVE,,LOS ALTOS,,,94024,,c213203808efa995
8584232,-122.0866182,37.3555784,1479,MIRAMONTE AVE,,LOS ALTOS,,,94024,,cee1798bb4ff5fb0
8584259,-122.1044038,37.3838873,127,AVALON DR,,LOS ALTOS,,,94022,,ff346ee29c9eb160
8584273,-122.1039768,37.3795503,445,RINCONADA CT,,LOS ALTOS,,,94022,,d064c6debf1beeaf
8584355,-122.0828515,37.3549838,1103,LISA LN,,LOS ALTOS,,,94024,,9f56fb72c25f52f8
8584356,-122.0665086,37.3565493,1678,OAK AVE,,LOS ALTOS,,,94024,,cdacad985e96ceff
8584362,-122.111461,37.3791181,127,HAWTHORNE AVE,,LOS ALTOS,,,94022,,149be96d67d10deb
8584387,-122.1022257,37.349757,1605,SHIRLEY AVE,,LOS ALTOS,,,94024,,f9b7046ccaf1ff5f
8584388,-122.1032701,37.3710035,453,ROSITA AVE,,LOS ALTOS,,,94024,,0573cadd5f5edfa5
8584429,-122.1002538,37.3492565,1677,WHITHAM AVE,,LOS ALTOS,,,94024,,0a863406d716b74c
8584471,-122.1048711,37.391855,390,CECELIA WAY,,LOS ALTOS,,,94022,,dfdc77e68c8dba13
8584542,-122.0919998,37.3526651,1527,TOPAR AVE,,LOS ALTOS,,,94024,,83053174e9795b38
8584572,-122.0733629,37.3450992,1459,HOLT AVE,,LOS ALTOS,,,94024,,c7e870fa082186b5
8584579,-122.0717686,37.3483042,1491,MORTON AVE,,LOS ALTOS,,,94024,,e38af5016970e2f6
8584637,-122.1245324,37.3915376,411,JUANITA WAY,,LOS ALTOS,,,94022,,f12332a899115abf
8584694,-122.1153408,37.397444,40,DEL MONTE AVE,,LOS ALTOS,,,94022,,f656ba1f16abebbf
8584758,-122.1086512,37.3838648,244,MERRITT RD,,LOS ALTOS,,,94022,,65fc269c36d7557b
8584774,-122.1089611,37.365017,906,MADONNA WAY,,LOS ALTOS,,,94024,,ae24dee7e390ce4c
8584777,-122.1135408,37.397315,30,CHESTER CIR,,LOS ALTOS,,,94022,,051fd4d619d0755e
8584817,-122.1066099,37.3888261,325,JARDIN DR,,LOS ALTOS,,,94022,,572f9bd313c76131
8584826,-122.0830019,37.3663043,930,HAYMAN PL,,LOS ALTOS,,,94024,,24b5246cc5924bee
8585000,-122.0900767,37.3481562,1765,MORA CT,,LOS ALTOS,,,94024,,1196694b974c5d1c
8585002,-122.1237513,37.400734,1031,MUNDELL CT,,LOS ALTOS,,,94022,,e5a88ff383bcc0f1
8585019,-122.1185848,37.3936663,687,LINDEN AVE,,LOS ALTOS,,,94022,,f49dc32bf15d20b7
8585024,-122.0719386,37.3446129,1500,HOLT AVE,,LOS ALTOS,,,94024,,e142f98c9eb3652c
8585025,-122.0987165,37.3496153,1675,FAIRWAY DR,,LOS ALTOS,,,94024,,f2e6010793c05fb8
8585028,-122.0831455,37.3479149,1230,MONTE VERDE CT,,LOS ALTOS,,,94024,,b235d001434ed586
8585143,-122.1217296,37.4045115,1168,LAURELES DR,,LOS ALTOS,,,94022,,ed81c2d2582c2e7c
8585255,-122.1047745,37.3583665,24201,SUMMERHILL AVE,,LOS ALTOS,,,94024,,8ccb5aaf44a8019e
8585284,-122.1107609,37.3766637,155,MARVIN AVE,,LOS ALTOS,,,94022,,4a0ac10c333a2ad5
8585301,-122.1127975,37.382352,40,NAVAJO LN,,LOS ALTOS,,,94022,,f88a86acf662405c
8585310,-122.1062997,37.3867263,293,ALICIA WAY,,LOS ALTOS,,,94022,,edab607d0cdbad06
8585312,-122.1011767,37.371771,542,GLEN ALTO DR,,LOS ALTOS,,,94024,,48ef3d64dca523a6
8585317,-122.0813464,37.3430552,1200,ST JOSEPH AVE,,LOS ALTOS,,,94024,,e501e22d072f60ca
8585334,-122.0968528,37.3675339,861,RIVERSIDE DR,,LOS ALTOS,,,94024,,6aee26a3fe12781e
8585401,-122.1061003,37.3894594,438,ALICIA WAY,,LOS ALTOS,,,94022,,ec9cc4d2d5047c0e
8585427,-122.1183742,37.3974489,194,DEL MONTE AVE,,LOS ALTOS,,,94022,,91a0ec5eed684bda
8585443,-122.0902831,37.3520319,1569,COUNTRY CLUB DR,,LOS ALTOS,,,94024,,3a3918b9187c4c40
8585456,-122.106839,37.393391,662,LOS NINOS WAY,,LOS ALTOS,,,94022,,4cf7c12f0dbed551
8585496,-122.0737265,37.3514176,1635,AUSTIN AVE,,LOS ALTOS,,,94024,,af7ab04e80c33a24
8585541,-122.1014974,37.3509343,1614,SHIRLEY AVE,,LOS ALTOS,,,94024,,8d8734fe2ca75ac4
8585560,-122.1134396,37.3919957,35,ARBUELO WAY,,LOS ALTOS,,,94022,,4bf6b1cf65d7772d
8585628,-122.0837924,37.3594375,1300,OAKHURST AVE,,LOS ALTOS,,,94024,,a315e43f84b53eab
8585652,-122.0675299,37.352907,1631,WAKEFIELD TER,,LOS ALTOS,,,94024,,518961354e2435e3
8585667,-122.1062778,37.3941926,706,LOS NINOS WAY,,LOS ALTOS,,,94022,,dff3f4985e74f685
8585720,-122.0640809,37.3577793,1727,SELIG LN,,LOS ALTOS,,,94024,,0db5495b60e67610
8585790,-122.1265245,37.3899004,500,TORWOOD LN,,LOS ALTOS,,,94022,,7fd75a525c2a81c3
8585806,-122.1001827,37.3629644,561,FREMONT AVE,,LOS ALTOS,,,94024,,6eaaa20149d84772
8585867,-122.1102379,37.3685319,811,ORCHID PL,,LOS ALTOS,,,94024,,49e2f64c7fa8ce20
8585890,-122.1089946,37.391175,539,PANCHITA WAY,,LOS ALTOS,,,94022,,70baf73b7458ac13
8585920,-122.1024785,37.3844767,169,DOUD DR,,LOS ALTOS,,,94022,,63dce4dcfcf591bb
8585934,-122.1113676,37.3867557,271,VALENCIA DR,,LOS ALTOS,,,94022,,e0b11cbe1c4c65bc
8586035,-122.0828579,37.360645,1260,CARMEL TER,,LOS ALTOS,,,94024,,1b291ab890a52e3d
8586043,-122.1218612,37.3866385,348,TOYON AVE,,LOS ALTOS,,,94022,,be0f82b05667c43d
8586044,-122.1033459,37.3722935,455,LOS PAJAROS CT,,LOS ALTOS,,,94024,,5dd5e173a30bf78e
8586090,-122.0893015,37.3647632,930,COVINGTON RD,,LOS ALTOS,,,94024,,c098d91ab15a2b14
8586103,-122.1077559,37.393763,682,PANCHITA WAY,,LOS ALTOS,,,94022,,5442118a3abad80e
8586132,-122.0800528,37.3428914,1192,ST CHARLES CT,,LOS ALTOS,,,94024,,6ddb173f37e37a6a
8586152,-122.0706866,37.3349717,1544,REDWOOD DR,,LOS ALTOS,,,94024,,73a56f18d841285d
8586201,-122.0958041,37.3398789,23260,MORA HEIGHTS WAY,,LOS ALTOS,,,94024,,f3b207dd4225defb
8586258,-122.1147831,37.3781851,233,3RD ST,,LOS ALTOS,,,94022,,aca647d7be51b121
8586259,-122.1086361,37.3718172,611,S EL MONTE AVE,,LOS ALTOS,,,94022,,c1c63c0251cc2d66
8586281,-122.0729242,37.3423995,2049,GRANT RD,,LOS ALTOS,,,94024,,f6f1e3b771411e48
8586383,-122.1077295,37.3784688,220,S GORDON WAY,,LOS ALTOS,,,94022,,f198a6ee458d471d
8586385,-122.0775341,37.3565662,1300,OAK AVE,,LOS ALTOS,,,94024,,a73174032b5e466d
8586395,-122.0816249,37.3443453,1955,LAVER CT,,LOS ALTOS,,,94024,,316e563bc9d56a44
8586400,-122.0769686,37.3511296,1347,RICHARDSON AVE,,LOS ALTOS,,,94024,,41e5266a12e89195
8586401,-122.1122748,37.3855648,74,DIOR TER,,LOS ALTOS,,,94022,,cd9a3cb22ee10174
8586472,-122.0970429,37.3585627,1265,ARBOR AVE,,LOS ALTOS,,,94024,,44bc10725604f3e8
8586595,-122.0673287,37.344139,1912,FARNDON AVE,,LOS ALTOS,,,94024,,6a1e607132379fd3
8586611,-122.122325,37.3870716,369,TOYON AVE,,LOS ALTOS,,,94022,,1098929bafdc7e16
8586623,-122.1012853,37.3683249,538,HARRINGTON AVE,,LOS ALTOS,,,94024,,e6c37130e9a6e771
8586682,-122.1140228,37.3724684,584,LINCOLN AVE,,LOS ALTOS,,,94022,,83a8f7355ccb8b14
8586780,-122.1095272,37.3912858,206,ARBUELO WAY,,LOS ALTOS,,,94022,,aaea97a9494c63f3
8586878,-122.0733427,37.3542685,1521,JULIE LN,,LOS ALTOS,,,94024,,204331ac70b15a91
8586946,-122.0715397,37.3344823,2374,DEODARA DR,,LOS ALTOS,,,94024,,19a8a26f47f9f122
8586959,-122.0949172,37.3602151,727,BRENTWOOD PL,,LOS ALTOS,,,94024,,f22deb35093180c2
8586973,-122.1115159,37.3953788,119,JORDAN AVE,,LOS ALTOS,,,94022,,a8e3cbd96572bf97
8586975,-122.1024577,37.3525529,1576,PLATEAU AVE,,LOS ALTOS,,,94024,,a63ff76eaaf85986
8586996,-122.116794,37.3998412,120,LOUCKS AVE,,LOS ALTOS,,,94022,,64fbdddd32899c6e
8587015,-122.0834793,37.345158,1465,MONTCLAIRE PL,,LOS ALTOS,,,94024,,4eaca7c17c9acf72
8587138,-122.0744174,37.3526884,1585,SIESTA DR,,LOS ALTOS,,,94024,,23262b0d73817205
8587149,-122.0900286,37.34363,2041,LONGDEN CIR,,LOS ALTOS,,,94024,,2906b1aebc8ddbae
8587233,-122.1081533,37.3931917,646,PANCHITA WAY,,LOS ALTOS,,,94022,,d31950cf93600f7f
8587274,-122.1211194,37.3825998,56,LOS ALTOS AVE,,LOS ALTOS,,,94022,,ce786d614e1545f4
8587283,-122.0802987,37.3506123,1222,RICHARDSON AVE,,LOS ALTOS,,,94024,,6d1574ab95052e70
8587300,-122.118021,37.3860762,175,CORONADO AVE,,LOS ALTOS,,,94022,,430b4287a01f1702
8587363,-122.0974286,37.3743437,689,BENVENUE AVE,,LOS ALTOS,,,94024,,3f130e3d614bccdd
8587387,-122.1011234,37.3439184,10711,ELOISE CIR,,LOS ALTOS,,,94024,,7b84bc33e2787832
8587425,-122.1018457,37.36092,1132,HILLSLOPE PL,,LOS ALTOS,,,94024,,369076d90a090f44
8587465,-122.1157153,37.3668606,51,BAY TREE LN,,LOS ALTOS,,,94022,,ad75a292bcf7ad82
8587599,-122.1065984,37.3716529,201,COVINGTON RD,,LOS ALTOS,,,94022,,05d2f73f292cc554
8587624,-122.1190802,37.4042844,1184,LOS ALTOS AVE,,LOS ALTOS,,,94022,,1bd923f5042bf8af
8587719,-122.1098451,37.3798435,191,HILLVIEW AVE,,LOS ALTOS,,,94022,,23088829099509d9
8587725,-122.1221235,37.3999819,994,LOS ALTOS AVE,,LOS ALTOS,,,94022,,77d1fcfc3257b2c4
8587726,-122.0979233,37.3381085,10724,MORA DR,,LOS ALTOS,,,94024,,a6f5ddfd0e2931ec
8587739,-122.0688729,37.3396849,2077,CRIST DR,,LOS ALTOS,,,94024,,85ad4fdca2162faf
8587781,-122.1177588,37.4033687,4388,EL CAMINO REAL,108,LOS ALTOS,,,94022,,8f243af616441ca1
8587797,-122.12716,37.3923637,525,PINE LN,,LOS ALTOS,,,94022,,f40f146e02ab389c
8587874,-122.0637455,37.3516199,1605,CHRISTINA DR,,LOS ALTOS,,,94024,,307a741c81e4abd5
8587951,-122.0652861,37.3386039,2100,FALLEN LEAF LN,,LOS ALTOS,,,94024,,9e520155235098a7
8587995,-122.0974796,37.3593479,1255,FAIRWAY DR,,LOS ALTOS,,,94024,,6b15f79244880aec
8588096,-122.0623082,37.3546248,1421,BROOKMILL RD,,LOS ALTOS,,,94024,,edc229af1026f098
8588113,-122.1138405,37.3775746,289,S SAN ANTONIO RD,,LOS ALTOS,,,94022,,102bbc8565a67bb5
8588120,-122.097048,37.3769887,326,S SPRINGER RD,,LOS ALTOS,,,94024,,609e6acf38ab07b9
8588180,-122.1156587,37.3731545,544,PALM AVE,,LOS ALTOS,,,94022,,34198d4bc097ab52
8588181,-122.1064257,37.3820247,330,GALLI CT,,LOS ALTOS,,,94022,,1e34c759d9b1c171
8588226,-122.1063855,37.3628713,476,BORDER HILL DR,,LOS ALTOS,,,94024,,d0c27f367d55a78d
8588291,-122.0979479,37.3556662,645,GREENVIEW PL,,LOS ALTOS,,,94024,,bb420a097c9221c4
8588298,-122.1224067,37.3867106,297,ALTA VISTA AVE,,LOS ALTOS,,,94022,,a57cce0443821c3d
8588357,-122.1026615,37.373918,483,CUESTA DR,,LOS ALTOS,,,94024,,d25c251353891c90
8588368,-122.1026512,37.3585247,1217,GRONWALL LN,,LOS ALTOS,,,94024,,51e83d76a08319b0
8588376,-122.0727061,37.349525,1711,WILLIAM HENRY CT,,LOS ALTOS,,,94024,,cfb821bbb1879eb0
8588380,-122.1168337,37.3900673,481,CHERRY AVE,,LOS ALTOS,,,94022,,cf1ec4934d5b094f
8588393,-122.0791003,37.3613082,1192,VOLTI LN,,LOS ALTOS,,,94024,,155d90b7586f499e
8588399,-122.0804297,37.3369641,2228,LAS CAMPANAS CT,,LOS ALTOS,,,94024,,c4c0f47e9e0d2609
8588402,-122.1125012,37.3944533,717,VERA CRUZ AVE,,LOS ALTOS,,,94022,,da20c6f9e49281fb
8588436,-122.0765055,37.3449993,1892,MIDDLETON AVE,,LOS ALTOS,,,94024,,8157c725af79f7c1
8588448,-122.109981,37.3784874,184,HAWTHORNE AVE,,LOS ALTOS,,,94022,,6b54664ac25bc210
8588475,-122.0667911,37.356562,1670,OAK AVE,,LOS ALTOS,,,94024,,af6824464c71028c
8588534,-122.0755314,37.3515087,1370,BRIGHT OAKS CT,,LOS ALTOS,,,94024,,cda04c9541ad7ebc
8588624,-122.1078691,37.3772775,297,WAVERLY LN,,LOS ALTOS,,,94022,,1bd3e0364d3699a6
8588670,-122.1211296,37.3867145,308,TOYON AVE,,LOS ALTOS,,,94022,,62b47d4db996c097
8588746,-122.1021052,37.375744,501,BENVENUE AVE,,LOS ALTOS,,,94024,,eb08ccc96d0ef6d5
8588759,-122.1168097,37.3860984,119,CORONADO AVE,,LOS ALTOS,,,94022,,6bed87928267e82d
8588761,-122.0646511,37.3388376,2099,FALLEN LEAF LN,,LOS ALTOS,,,94024,,3ad8a45dd91338c3
8588793,-122.0820157,37.3463919,1425,HIGHLAND VIEW CT,,LOS ALTOS,,,94024,,9f1fe0b3450389a9
8588839,-122.0933886,37.3590547,778,ALTOS OAKS DR,,LOS ALTOS,,,94024,,279996dbe1ca22e8
8588878,-122.1172815,37.3803866,86,3RD ST,,LOS ALTOS,,,94022,,1a41b4f0dda1df3d
8589015,-122.1057158,37.3859899,254,SUNKIST LN,,LOS ALTOS,,,94022,,76526bc17802ae73
8589034,-122.1081193,37.3620454,286,QUINNHILL AVE,,LOS ALTOS,,,94024,,602923fc89830784
8589108,-122.104081,37.3744672,430,SAN LUIS AVE,,LOS ALTOS,,,94024,,ef5e0f2c99184d1c
8589109,-122.1247833,37.3935723,464,HEATHER CT,,LOS ALTOS,,,94022,,7c35909e6bf0a095
8589149,-122.0612701,37.3306422,10530,CRESTON DR,,LOS ALTOS,,,94024,,0c8e5a9b4f588da5
8589194,-122.0776753,37.3389762,59,CITATION DR,,LOS ALTOS,,,94024,,bbc15083a29eee09
8589195,-122.0658789,37.331597,22357,STARLING DR,,LOS ALTOS,,,94024,,1cb99d5739bfb2fd
8589233,-122.1000193,37.381203,595,CAMELLIA WAY,,LOS ALTOS,,,94024,,0bdcab5be5f3d7c3
8589247,-122.1083685,37.3974272,895,JORDAN AVE,,LOS ALTOS,,,94022,,9051d0667e859a16
8589353,-122.0992053,37.3761434,624,PACO DR,,LOS ALTOS,,,94024,,23bab94a73249fdb
8589371,-122.1076201,37.3834587,110,N GORDON WAY,,LOS ALTOS,,,94022,,5910c8453364c4f9
8589507,-122.1070846,37.3793704,163,S GORDON WAY,,LOS ALTOS,,,94022,,7a04775f6de02d99
8589582,-122.0706567,37.3482779,1531,MORTON AVE,,LOS ALTOS,,,94024,,b9d88e9a306b0110
8589592,-122.1014662,37.3782084,530,HAWTHORNE CT,,LOS ALTOS,,,94024,,c3d63b9086dac130
8589598,-122.1074454,37.3892542,428,CASITA WAY,,LOS ALTOS,,,94022,,05541ba62d7c7e15
8589634,-122.0770283,37.3581964,1320,MIRAVALLE AVE,,LOS ALTOS,,,94024,,119a33a0f2c6498a
8589773,-122.1171999,37.3680323,76,DEEP WELL LN,,LOS ALTOS,,,94022,,a605ce69043bf80f
8589837,-122.1058629,37.3931462,650,DISTEL DR,,LOS ALTOS,,,94022,,745810dd5b6c4b7a
8589856,-122.0688293,37.3458028,1873,GRANT PARK LN,,LOS ALTOS,,,94024,,94ce73c2ce53f69a
8589881,-122.0790619,37.3363782,2260,VIA MADEROS,,LOS ALTOS,,,94024,,00c61edbd151047a
8589954,-122.0793796,37.3501082,1243,NIGHTINGALE CT,,LOS ALTOS,,,94024,,cb7ba6e90f687243
8589957,-122.065542,37.3586992,1320,HARWALT DR,,LOS ALTOS,,,94024,,1d77fc1f20c929f9
8589968,-122.0720724,37.3431223,1967,NEWCASTLE DR,,LOS ALTOS,,,94024,,a8de7fd3109ba318
8589988,-122.0792388,37.3424684,1192,ST ANTHONY CT,,LOS ALTOS,,,94024,,03eeab42a2faef09
8590028,-122.070648,37.3493356,1720,PARKHILLS AVE,,LOS ALTOS,,,94024,,69d078a8d9daff99
8590037,-122.106749,37.3824927,315,GALLI CT,,LOS ALTOS,,,94022,,8741ba2c193a5558
8590112,-122.1040399,37.3727152,420,ARBOLEDA DR,,LOS ALTOS,,,94024,,a13fb0b404c9e161
8590127,-122.090203,37.3587738,885,CLINTON RD,,LOS ALTOS,,,94024,,fbbb8f0eaefba74c
8590311,-122.0792269,37.3453253,1888,GRANGER AVE,,LOS ALTOS,,,94024,,d40072dac7779952
8590314,-122.0794808,37.3631902,1100,W ROSE CIR,,LOS ALTOS,,,94024,,8b091d0f8d631e65
8590327,-122.0707368,37.354872,1495,WESSEX AVE,,LOS ALTOS,,,94024,,91dd0bd12b0fb61e
8590336,-122.114783,37.3818412,1,W EDITH AVE,D219,LOS ALTOS,,,94022,,67d1fa66222150f3
8590363,-122.1175467,37.4034348,4388,EL CAMINO REAL,219,LOS ALTOS,,,94022,,faf534d43a04cf68
8590408,-122.120548,37.3895793,400,PATRICK WAY,,LOS ALTOS,,,94022,,2e11cc2b4e59ef1d
8590421,-122.1114616,37.3962146,122,E PORTOLA AVE,,LOS ALTOS,,,94022,,134f38bd659502b1
8590461,-122.1002998,37.3568675,550,MAGDALENA AVE,,LOS ALTOS,,,94024,,c9b4f9319ca68930
8590508,-122.0812716,37.346347,1420,HIGHLAND VIEW CT,,LOS ALTOS,,,94024,,7c5c5d16cae1c668
8590616,-122.1105052,37.3943324,212,DELPHI CIR,,LOS ALTOS,,,94022,,c759cfc4d45a523f
8590638,-122.0791667,37.3436175,1176,ST CHARLES CT,,LOS ALTOS,,,94024,,29967e06d98e8ede
8590643,-122.1045234,37.391695,562,CECELIA CT,,LOS ALTOS,,,94022,,df7f63f6096d77ce
8590693,-122.1225592,37.3997506,393,TRAVERSO AVE,,LOS ALTOS,,,94022,,fafd577cd5e8c1f1
8590711,-122.0917295,37.3648457,814,COVINGTON RD,,LOS ALTOS,,,94024,,15c25cbb12d42903
8590739,-122.105697,37.386556,288,SUNKIST LN,,LOS ALTOS,,,94022,,cf5cb4ec5220ecfa
8590814,-122.0984398,37.3807439,638,CAMELLIA WAY,,LOS ALTOS,,,94024,,26a1a999f0c359cf
8590887,-122.0786504,37.3445831,1900,DEODARA DR,,LOS ALTOS,,,94024,,80ab486f00527599
8590894,-122.1048701,37.3653807,400,ANITA AVE,,LOS ALTOS,,,94024,,c7210aaadffae4f9
8590985,-122.0674193,37.3546885,1641,HAVENHURST DR,,LOS ALTOS,,,94024,,819845bc356a201f
8591020,-122.1186508,37.3913086,561,PATRICK WAY,,LOS ALTOS,,,94022,,7eb1eafbb7671fe6
8591111,-122.1008561,37.3852323,217,N CLARK AVE,,LOS ALTOS,,,94022,,6f1e97c1e9be92a5
8591128,-122.0957915,37.3610327,1225,S SPRINGER RD,,LOS ALTOS,,,94024,,5e7c0b1dc330eec7
8591131,-122.0771736,37.3468252,1317,ROSSWAY CT,,LOS ALTOS,,,94024,,964b1aa53011a736
8591196,-122.1057842,37.3915706,351,ALVARADO AVE,,LOS ALTOS,,,94022,,d82a199e55310a46
8591259,-122.068839,37.3428223,1960,CHURTON AVE,,LOS ALTOS,,,94024,,dcb2e6c4334fec79
8591266,-122.067165,37.3538843,1521,MEDFORD DR,,LOS ALTOS,,,94024,,387b345e31210145
8591328,-122.1132916,37.3924729,44,ALVARADO AVE,,LOS ALTOS,,,94022,,01cc6d2a1ebf6799
8591384,-122.1036381,37.3748413,437,SAN LUIS AVE,,LOS ALTOS,,,94024,,a58ca757b029392e
8591396,-122.1259482,37.3880981,380,BLUE OAK LN,,LOS ALTOS,,,94022,,5a42bfc24e15c074
8591416,-122.1094348,37.3798134,215,HILLVIEW AVE,,LOS ALTOS,,,94022,,64eb72b6020daa83
8591481,-122.0838028,37.3422392,2009,SCOTT LN,,LOS ALTOS,,,94024,,06dc50bb6e30e2cf
8591482,-122.0706452,37.3495334,1710,PARKHILLS AVE,,LOS ALTOS,,,94024,,23467f374200fec8
8591527,-122.1147831,37.3781851,243,3RD ST,,LOS ALTOS,,,94022,,d778aa88c47be9b7
8591559,-122.1170703,37.3790573,292,PLAZA CENTRAL,,LOS ALTOS,,,94022,,3f7c6b9836783e0c
8591569,-122.1171909,37.3777894,363,MAIN ST,,LOS ALTOS,,,94022,,0a834d579a307d05
8591634,-122.099108,37.3775457,625,GIRALDA DR,,LOS ALTOS,,,94024,,fbe41fc80b3b89f3
8591640,-122.1029748,37.3440964,10655,ELOISE CIR,,LOS ALTOS,,,94024,,b8e788699a930a2d
8591651,-122.1068153,37.3892491,435,CASITA WAY,,LOS ALTOS,,,94022,,68c4b7fab366bbf7
8591657,-122.0684482,37.3540347,1545,TRUMAN AVE,,LOS ALTOS,,,94024,,0cfff0e8d5f940b4
8591658,-122.1190864,37.3712311,210,MANRESA CT,,LOS ALTOS,,,94022,,782ccbcf22d596f4
8591661,-122.099517,37.3807347,614,CAMELLIA WAY,,LOS ALTOS,,,94024,,54ba56d99f904efd
8591666,-122.0725726,37.3562621,1448,MARLBAROUGH CT,,LOS ALTOS,,,94024,,3262c639522c41f3
8591711,-122.1182792,37.4037076,4388,EL CAMINO REAL,288,LOS ALTOS,,,94022,,3dcc15ad254566f6
8591712,-122.1182792,37.4037076,4388,EL CAMINO REAL,388,LOS ALTOS,,,94022,,81a88764bd6fdaca
8591772,-122.0828444,37.3450677,1450,MONTCLAIRE PL,,LOS ALTOS,,,94024,,177fa57acacc2da4
8591773,-122.0689409,37.3529184,1580,TRUMAN AVE,,LOS ALTOS,,,94024,,8face287cd8db9eb
8591901,-122.0972288,37.3846335,185,N EL MONTE AVE,,LOS ALTOS,,,94022,,63e5a833d82cffe5
8592078,-122.114024,37.3978494,865,N SAN ANTONIO RD,,LOS ALTOS,,,94022,,5b5e06eacd2ed6f1
8592160,-122.0981312,37.3822479,45,OTIS WAY,,LOS ALTOS,,,94022,,374c64f0257cab0e
8592194,-122.0693597,37.3535253,1559,QUEENSBURY AVE,,LOS ALTOS,,,94024,,e2379aaa686fe351
8592240,-122.1099398,37.3770513,190,PEPPER DR,,LOS ALTOS,,,94022,,b65602a1eda002d9
8592309,-122.0890712,37.3468238,886,TERRACE DR,,LOS ALTOS,,,94024,,a7c9acbe8c13feef
8592313,-122.104627,37.3739296,395,CUESTA DR,,LOS ALTOS,,,94024,,a017274c5a4847e2
8592332,-122.1257962,37.398033,848,DIXON WAY,,LOS ALTOS,,,94022,,b5b9b0ab711dd748
8592340,-122.0984337,37.3798128,638,SPRINGER TER,,LOS ALTOS,,,94024,,f966910bd420dd4e
8592364,-122.1142618,37.3693556,756,UNIVERSITY AVE,,LOS ALTOS,,,94022,,7322a93497f03738
8592370,-122.1049443,37.3800452,140,AVALON DR,,LOS ALTOS,,,94022,,6ef84f10a03a1c63
8592371,-122.1061309,37.3944034,712,LOS NINOS WAY,,LOS ALTOS,,,94022,,8fb2858744141817
8592404,-122.0978539,37.3691244,655,BIRCHWOOD CT,,LOS ALTOS,,,94024,,364d9b5df98cdb7d
8592487,-122.115244,37.368301,751,WOODSTOCK LN,,LOS ALTOS,,,94022,,c8f24e800b191144
8592490,-122.1121794,37.3728563,568,LASSEN ST,2,LOS ALTOS,,,94022,,ea4269464945adb4
8592502,-122.102631,37.3678478,840,CAMPBELL AVE,,LOS ALTOS,,,94024,,d31ae0e3b5284ba2
8592518,-122.0843754,37.338905,880,LOCKHAVEN CT,,LOS ALTOS,,,94024,,930d9cab50266e72
8592534,-122.1078609,37.3621918,288,QUINNHILL AVE,,LOS ALTOS,,,94024,,0359f2ee6d1249b1
8592582,-122.1115353,37.3729943,561,LASSEN ST,,LOS ALTOS,,,94022,,03b3fa7b96dcbd3c
8592583,-122.0852124,37.343492,1054,HIGHLANDS CIR,,LOS ALTOS,,,94024,,c0f82e57ef529273
8592587,-122.1137716,37.3912659,540,CASTANO CORTE,,LOS ALTOS,,,94022,,630e175534ccde7e
8592588,-122.0739794,37.3464342,1827,AUSTIN AVE,,LOS ALTOS,,,94024,,9d3bb6a57e4c10b0
8592646,-122.1082482,37.3816179,261,E EDITH AVE,,LOS ALTOS,,,94022,,480dbb8949d722a8
8592732,-122.0670878,37.3546325,1651,HAVENHURST DR,,LOS ALTOS,,,94024,,ec17bc4b3d4d711a
8592754,-122.0675175,37.3557584,1648,PINEHURST DR,,LOS ALTOS,,,94024,,a395bfe7bc87ecae
8592801,-122.1126873,37.3933465,661,VERA CRUZ AVE,,LOS ALTOS,,,94022,,710b98b5fcb4dfd5
8592831,-122.0764323,37.3341969,5886,ARBORETUM DR,,LOS ALTOS,,,94024,,697817baa24aa5be
8592873,-122.0931849,37.3630569,779,EDGE LN,,LOS ALTOS,,,94024,,7cf2eb1407f7a9fc
8592891,-122.0877971,37.3534089,961,FREMONT AVE,,LOS ALTOS,,,94024,,70eea21e0112fb88
8592991,-122.122845,37.3997494,407,TRAVERSO AVE,,LOS ALTOS,,,94022,,1ec416bdb8867a50
8593002,-122.116146,37.3883545,86,YERBA SANTA AVE,,LOS ALTOS,,,94022,,bab178969d59863f
8593003,-122.103564,37.3606492,496,VALLEY VIEW DR,,LOS ALTOS,,,94024,,4b8ccfe2fe4dab28
8593056,-122.116732,37.3991424,950,N SAN ANTONIO RD,,LOS ALTOS,,,94022,,0b3f9f10dc3c4b40
8593117,-122.0707051,37.3510736,1642,PARKHILLS AVE,,LOS ALTOS,,,94024,,f262986510bddcd8
8593283,-122.1177616,37.3974628,172,DEL MONTE AVE,,LOS ALTOS,,,94022,,f058fe3526e7d3e2
8593318,-122.0895622,37.3653695,909,COVINGTON RD,,LOS ALTOS,,,94024,,67fdf64e19bc32d1
8593359,-122.115226,37.3875211,32,YERBA BUENA AVE,,LOS ALTOS,,,94022,,abe99146be1b9eb0
8593401,-122.0700188,37.335769,1555,HONEYSUCKLE PL,,LOS ALTOS,,,94024,,23afb55fb950fb6a
8593409,-122.0963539,37.3841262,685,BLINN CT,,LOS ALTOS,,,94024,,fbadcced8c716912
8593442,-122.0940991,37.3788005,750,SUNSHINE DR,,LOS ALTOS,,,94024,,a1bc42110960ddb9
8593459,-122.0992036,37.3656147,622,COVINGTON RD,,LOS ALTOS,,,94024,,a7ac04b8e799f955
8593485,-122.1175715,37.367552,38,DEEP WELL LN,,LOS ALTOS,,,94022,,23eb23e235127b2f
8593520,-122.1231618,37.3842334,162,ALTA VISTA AVE,,LOS ALTOS,,,94022,,554c94e1d9726c5b
8593591,-122.1002987,37.3714314,585,ROSITA AVE,,LOS ALTOS,,,94024,,cc5928ded150d74b
8593773,-122.0977673,37.3756961,657,BENVENUE AVE,,LOS ALTOS,,,94024,,e51774f3f65c727b
8593780,-122.1061588,37.373936,341,CUESTA DR,,LOS ALTOS,,,94024,,0e0030ce7533b76e
8593823,-122.1085209,37.3806939,253,FRANCES DR,,LOS ALTOS,,,94022,,f4f19e2c57270868
8593834,-122.1033184,37.3594687,465,KNOLL DR,,LOS ALTOS,,,94024,,987e2063d3ab3766
8593847,-122.0973864,37.3712458,667,ROSITA AVE,,LOS ALTOS,,,94024,,f3c913a9c7b147dd
8593882,-122.1142118,37.3699084,745,UNIVERSITY AVE,,LOS ALTOS,,,94022,,397059d94b3d7c40
8593909,-122.0899733,37.3457211,848,TERRACE DR,,LOS ALTOS,,,94024,,4627f196cedc48a2
8593916,-122.0834553,37.3501933,1111,PENINSULAR AVE,,LOS ALTOS,,,94024,,7226bab5a4559e8b
8593956,-122.1162245,37.3870542,99,SYLVIAN WAY,,LOS ALTOS,,,94022,,145a65035c5381c0
8593957,-122.1092674,37.3907345,517,PANCHITA WAY,,LOS ALTOS,,,94022,,1b04f46b2c20ee69
8593958,-122.0752921,37.3558218,1402,MARINOVICH WAY,,LOS ALTOS,,,94024,,feb37e8ea7c0f292
8593969,-122.1171247,37.38157,133,W EDITH AVE,,LOS ALTOS,,,94022,,720ae92e9490f187
8593992,-122.068575,37.3412271,2001,FARNDON AVE,,LOS ALTOS,,,94024,,fedc01c621cb48dd
8594008,-122.1113733,37.3865386,261,BIARRITZ CIR,,LOS ALTOS,,,94022,,2e07bf28d6ee34de
8594057,-122.0735758,37.3450771,1449,HOLT AVE,,LOS ALTOS,,,94024,,812a0e6bb8b376b7
8594079,-122.1182645,37.3989008,914,MERCEDES AVE,,LOS ALTOS,,,94022,,d0f6bdee9c11a5b2
8594087,-122.0914128,37.3533736,1524,ARBOR AVE,,LOS ALTOS,,,94024,,b1adac11399cbccc
8594138,-122.1145535,37.3799847,127,MAIN ST,,LOS ALTOS,,,94022,,5b807bf7ef102a65
8594254,-122.1145334,37.3801691,111,MAIN ST,,LOS ALTOS,,,94022,,3da4ee7396a79f00
8594257,-122.0984405,37.3875286,641,SPARGUR DR,,LOS ALTOS,,,94022,,c48a6a4fffdb3964
8594267,-122.1040024,37.3576684,24149,SUMMERHILL AVE,,LOS ALTOS,,,94024,,5b06d40e7f5afc43
8594271,-122.064145,37.3524606,1473,BROOKMILL RD,,LOS ALTOS,,,94024,,6a3a612a65f3acca
8594274,-122.0799752,37.3501222,1227,NIGHTINGALE CT,,LOS ALTOS,,,94024,,d477e34429576c43
8594277,-122.1044968,37.3795624,439,RINCONADA CT,,LOS ALTOS,,,94022,,a8d38114e291a9ed
8594286,-122.1088051,37.3707189,186,COVINGTON RD,,LOS ALTOS,,,94024,,4390d14a9a926597
8594302,-122.1174144,37.3782587,350,MAIN ST,,LOS ALTOS,,,94022,,135362ba09af465b
8594306,-122.0996224,37.3829225,74,N EL MONTE AVE,,LOS ALTOS,,,94022,,d79c2258014f8bc4
8594327,-122.117688,37.4037569,4388,EL CAMINO REAL,236,LOS ALTOS,,,94022,,ede25dfc30d7a410
8594358,-122.1181079,37.4035891,4388,EL CAMINO REAL,178,LOS ALTOS,,,94022,,8be921566f6ddfa2
8594442,-122.1191739,37.373996,2,ADOBE CREEK WAY,,LOS ALTOS,,,94022,,70243813f9e5eacf
8594455,-122.0768994,37.3442661,1941,DEODARA DR,,LOS ALTOS,,,94024,,dfc640458baa8477
8594535,-122.0877778,37.3602735,968,LINDA VISTA WAY,,LOS ALTOS,,,94024,,41b1948fd8dcf94a
8594574,-122.0802583,37.3511429,1221,RICHARDSON AVE,,LOS ALTOS,,,94024,,9c4c7918a656167f
8594636,-122.1209444,37.398166,847,LOS ALTOS AVE,,LOS ALTOS,,,94022,,790101180bab60e6
8594674,-122.1099938,37.3838683,184,MERRITT RD,,LOS ALTOS,,,94022,,6cf667fabc668d08
8594697,-122.067748,37.3565767,1638,OAK AVE,,LOS ALTOS,,,94024,,22504cfe48c21d13
8594743,-122.0973614,37.3802147,667,SPRINGER TER,,LOS ALTOS,,,94024,,bf6d8255dbc8f4ff
8594764,-122.1153288,37.3978425,59,DEL MONTE AVE,,LOS ALTOS,,,94022,,56def39bfec9fb5d
8594797,-122.1002965,37.3803258,71,S CLARK AVE,,LOS ALTOS,,,94024,,1b929193b2e84ce0
8594801,-122.075597,37.3565758,1400,OAK AVE,,LOS ALTOS,,,94024,,0ba31e6626baa9ea
8594807,-122.126924,37.393224,636,LEAF CT,,LOS ALTOS,,,94022,,e31b6fd6241b5ef7
8594820,-122.1190615,37.3869134,220,YERBA BUENA AVE,,LOS ALTOS,,,94022,,08f660c478859081
8594873,-122.0841889,37.35493,1480,HOLLY AVE,,LOS ALTOS,,,94024,,4d1f24b68989214b
8594895,-122.0745332,37.355571,1417,RANCHITA DR,,LOS ALTOS,,,94024,,347c7af815e0cd03
8594914,-122.107055,37.3856749,236,ALICIA WAY,,LOS ALTOS,,,94022,,15cb2771425f6d1f
8594928,-122.090647,37.3618498,1181,GOLDEN WAY,,LOS ALTOS,,,94024,,0b8d7c9fcf41623f
8595036,-122.0801174,37.3574956,1220,EUREKA CT,,LOS ALTOS,,,94024,,3914094f0c96691f
8595082,-122.1046706,37.3775576,398,HAWTHORNE AVE,,LOS ALTOS,,,94022,,f0b1a7ef3779a7b5
8595086,-122.0871442,37.3451908,1035,ROBIN HOOD CT,,LOS ALTOS,,,94024,,d5ec86a7da0f24e2
8595088,-122.0968111,37.3623648,1149,BRIARWOOD CT,,LOS ALTOS,,,94024,,f7e3afd9199b018a
8595095,-122.1054569,37.3968436,5000,EL CAMINO REAL,,LOS ALTOS,,,94022,,a6526d3eefdd8c59
8595126,-122.1140612,37.3681937,680,MILVERTON RD,,LOS ALTOS,,,94022,,79b8670b2d767966
8595150,-122.0963358,37.3623466,1148,S SPRINGER RD,,LOS ALTOS,,,94024,,51099ad850e89394
8595254,-122.0821239,37.3657997,954,BLACK MOUNTAIN CT,,LOS ALTOS,,,94024,,3cd6be49b7d00a07
8595302,-122.067133,37.3328383,22434,CRESTON DR,,LOS ALTOS,,,94024,,2b8c13bc09b36327
8595314,-122.1008828,37.3683332,814,ECHO DR,,LOS ALTOS,,,94024,,59522ce3be8ba9e5
8595329,-122.0846516,37.3496553,1205,LARNEL PL,,LOS ALTOS,,,94024,,f523b6ab7eaf1040
8595350,-122.1133137,37.3976395,55,CHESTER CIR,,LOS ALTOS,,,94022,,10fe01882d4804c4
8595489,-122.1167608,37.3785946,294,MAIN ST,,LOS ALTOS,,,94022,,238668506fa59f47
8595500,-122.0724488,37.3423701,2065,GRANT RD,,LOS ALTOS,,,94024,,7725d45b63c6caad
8595618,-122.0711353,37.3474749,1691,DALEHURST AVE,,LOS ALTOS,,,94024,,671a41310e17bfa6
8595621,-122.0661753,37.3529608,1551,FALLEN LEAF LN,,LOS ALTOS,,,94024,,46f66a2d0afd6d63
8595632,-122.1121564,37.3893296,426,VALENCIA DR,,LOS ALTOS,,,94022,,68eefdeb47ddfc08
8595696,-122.1220884,37.3912363,540,GUADALUPE DR,,LOS ALTOS,,,94022,,c15f419f7eeba688
8595704,-122.069614,37.3381175,2171,DEODARA DR,,LOS ALTOS,,,94024,,2a7d195c41637f31
8595710,-122.0969795,37.3739433,681,CUESTA DR,,LOS ALTOS,,,94024,,8df99f92acef0d3a
8595746,-122.0785562,37.3604777,1285,PAULA CT,,LOS ALTOS,,,94024,,c9fab685e93daddd
8595780,-122.0837009,37.3471712,1391,MONTCLAIRE CT,,LOS ALTOS,,,94024,,43a5280a46b59c26
8595817,-122.0983942,37.381184,639,CAMELLIA WAY,,LOS ALTOS,,,94024,,e9b95a7057a47780
8595857,-122.0752387,37.3430084,1995,DEODARA DR,,LOS ALTOS,,,94024,,5683397f8e35a615
8596022,-122.109892,37.382977,190,ANGELA DR,,LOS ALTOS,,,94022,,7027b82d704db319
8596043,-122.1133574,37.3660443,24841,SUMMERHILL AVE,,LOS ALTOS,,,94024,,3efbf5ff49a71aac
8596148,-122.1213241,37.3856845,326,CHAMISAL AVE,,LOS ALTOS,,,94022,,986505872dd636e8
8596191,-122.0973164,37.3884065,667,HOLLINGSWORTH DR,,LOS ALTOS,,,94022,,779988229c92410a
8596210,-122.0890947,37.3590883,938,ALTOS OAKS DR,,LOS ALTOS,,,94024,,217cfef8c41e13ee
8596262,-122.065334,37.3403997,2019,VICTORIA CT,,LOS ALTOS,,,94024,,183bee9aa6bcae92
8596352,-122.0836601,37.3442738,1105,ST JOSEPH AVE,,LOS ALTOS,,,94024,,03f3baa77e9ff754
8596396,-122.0782014,37.3612736,1200,GRANT RD,,LOS ALTOS,,,94024,,c65d9bb5eb1fbe1c
8596409,-122.1053591,37.3852504,215,SUNKIST LN,,LOS ALTOS,,,94022,,e9788c3b8c144d78
8596433,-122.0809662,37.3533776,1240,LISA LN,,LOS ALTOS,,,94024,,4ccf396327488968
8596442,-122.0711622,37.3505565,1515,RICHARDSON AVE,,LOS ALTOS,,,94024,,c0d1b656623c616e
8596470,-122.0902209,37.3495936,1609,CRESTVIEW DR,,LOS ALTOS,,,94024,,20dd4600990f04b3
8596573,-122.0722651,37.3429604,1973,NEWCASTLE DR,,LOS ALTOS,,,94024,,35e686d0557d956a
8596577,-122.0654835,37.3554148,1721,LARKELLEN LN,,LOS ALTOS,,,94024,,ff9817a3003a3648
8596583,-122.0681264,37.3554234,1621,ELMHURST DR,,LOS ALTOS,,,94024,,93e076a80e0637f9
8596626,-122.1094536,37.3757368,201,LYELL ST,,LOS ALTOS,,,94022,,159bd66f98424126
8596803,-122.1074135,37.3933694,671,PANCHITA WAY,,LOS ALTOS,,,94022,,8618a0345c263dd2
8596986,-122.0668208,37.3442007,1917,FARNDON AVE,,LOS ALTOS,,,94024,,7e625737938c0125
8596992,-122.0929258,37.3662386,935,LEONELLO AVE,,LOS ALTOS,,,94024,,f936e6e6609b2a10
8597003,-122.0802648,37.3496623,1224,NIGHTINGALE CT,,LOS ALTOS,,,94024,,cd859751f1feed48
8597004,-122.066767,37.3391747,2060,LOUISE LN,,LOS ALTOS,,,94024,,d292892249c25c4b
8597007,-122.0655163,37.3579634,1350,HARWALT DR,,LOS ALTOS,,,94024,,91aa3433c667fc5e
8597013,-122.0935671,37.362582,762,EDGE LN,,LOS ALTOS,,,94024,,840321ecc17c60ee
8597014,-122.1025,37.3505141,1596,SHIRLEY AVE,,LOS ALTOS,,,94024,,380d785d02f9d854
8597073,-122.1135179,37.3741097,43,CUESTA DR,,LOS ALTOS,,,94022,,7c8891b9d21a4994
8597086,-122.0725358,37.3572899,1389,CHELSEA DR,,LOS ALTOS,,,94024,,6739333ed8783b33
8597087,-122.0997309,37.3839676,145,HIGGINS AVE,,LOS ALTOS,,,94022,,fbc5fff00abe8044
8597111,-122.1031087,37.3878577,371,SOLANA DR,,LOS ALTOS,,,94022,,b86c30262b3d751c
8597137,-122.1208265,37.4047849,1183,LAURELES DR,,LOS ALTOS,,,94022,,485730d6e874f6a0
8597171,-122.1185917,37.3917599,581,PATRICK WAY,,LOS ALTOS,,,94022,,ba681105208d8a1a
8597208,-122.1060385,37.376506,360,S EL MONTE AVE,,LOS ALTOS,,,94022,,e0d609cf097b4de5
8597315,-122.1188233,37.3887845,209,YERBA SANTA AVE,,LOS ALTOS,,,94022,,183db9b55160540e
8597435,-122.0894195,37.36594,953,RUSSELL AVE,,LOS ALTOS,,,94024,,4ab18c10b526a214
8597452,-122.1199321,37.39245,245,PINE LN,,LOS ALTOS,,,94022,,4ba143f827214c0b
8597511,-122.0667401,37.3526539,1560,FALLEN LEAF LN,,LOS ALTOS,,,94024,,fbd99e969e0b46c8
8597746,-122.1065265,37.3748704,325,SAN LUIS AVE,,LOS ALTOS,,,94024,,a328d60f56f99664
8597760,-122.111828,37.3683727,822,AMBER LN,,LOS ALTOS,,,94024,,14d7c1a01795de54
8597770,-122.1261299,37.3935949,651,TWELVE ACRES DR,,LOS ALTOS,,,94022,,f8a586ed2ec82410
8597786,-122.0752115,37.3524882,1385,FREMONT AVE,,LOS ALTOS,,,94024,,df5aca7456adbba1
8597798,-122.0968436,37.3658199,678,ARROWOOD CT,,LOS ALTOS,,,94024,,3eceacc97206d02d
8597836,-122.0684041,37.353409,1610,KINGSTON CT,,LOS ALTOS,,,94024,,1bad26a233d55e2a
8597848,-122.0762822,37.3357234,505,MIMOSA CT,,LOS ALTOS,,,94024,,7c0eb079dd88e222
8597853,-122.0709833,37.3459772,1861,NEWCASTLE DR,,LOS ALTOS,,,94024,,3785f922e8f24df5
8597857,-122.0947728,37.3769867,787,SUNSHINE DR,,LOS ALTOS,,,94024,,f46a6a90179b7543
8597858,-122.0934534,37.3622539,753,BERRY AVE,,LOS ALTOS,,,94024,,7f4bcf39f34505e8
8597868,-122.0834611,37.3441337,1111,ST JOSEPH AVE,,LOS ALTOS,,,94024,,add747be901f2148
8597900,-122.0987975,37.3723693,607,PARMA WAY,,LOS ALTOS,,,94024,,62911335e32004f2
8597935,-122.0893574,37.3602769,918,LINDA VISTA WAY,,LOS ALTOS,,,94024,,74ac3e77f63ec665
8597942,-122.0880469,37.3598194,961,LINDA VISTA WAY,,LOS ALTOS,,,94024,,782f609918b95469
8597964,-122.0953597,37.3667576,720,SPENCER CT,,LOS ALTOS,,,94024,,66ec326b66e4a905
8598021,-122.1016703,37.3625293,549,VALLEY VIEW DR,,LOS ALTOS,,,94024,,032869979f01d9a7
8598083,-122.1156986,37.3974308,64,DEL MONTE AVE,,LOS ALTOS,,,94022,,9e98ee55882a3df5
8598112,-122.0834507,37.3660483,950,HAYMAN PL,,LOS ALTOS,,,94024,,25e1e4238dc63e8a
8598244,-122.1174859,37.378222,366,MAIN ST,,LOS ALTOS,,,94022,,57eac516f6b30805
8598315,-122.0717022,37.3510382,1644,RANDOLPH PKWY,,LOS ALTOS,,,94024,,847f392f5d1af8f5
8598325,-122.0962787,37.3875334,693,SPARGUR DR,,LOS ALTOS,,,94022,,f3933fd70fc86112
8598344,-122.1209625,37.4042309,1173,ORILLA CT,,LOS ALTOS,,,94022,,1d052edccdff4b04
8598345,-122.1182978,37.3820125,39,OAK ST,,LOS ALTOS,,,94022,,2ec61f3ed37250d1
8598346,-122.0904928,37.3521829,1563,COUNTRY CLUB DR,,LOS ALTOS,,,94024,,695a779c4917468e
8598492,-122.1028441,37.3705616,466,ROSITA AVE,,LOS ALTOS,,,94024,,9329632a2c0eb6c8
8598604,-122.1218413,37.3874656,362,YERBA BUENA AVE,,LOS ALTOS,,,94022,,f26d688493586cb5
8598630,-122.1151489,37.3664509,54,BAY TREE LN,,LOS ALTOS,,,94022,,c6cae118b61cbe15
8598647,-122.1155835,37.393227,670,BELDEN CT,,LOS ALTOS,,,94022,,b77e2cb34d2938b8
8598649,-122.0890492,37.3563036,1447,AURA WAY,,LOS ALTOS,,,94024,,520d376dd180ed3c
8598654,-122.0969116,37.3572488,1294,ARBOR AVE,,LOS ALTOS,,,94024,,77174b2c2e53622e
8598655,-122.103956,37.3705711,420,ROSITA AVE,,LOS ALTOS,,,94024,,c6094778f69a30ea
8598711,-122.1064042,37.3923834,630,DISTEL DR,,LOS ALTOS,,,94022,,9c87a586446a5ffc
8598752,-122.1102604,37.3770772,174,PEPPER DR,,LOS ALTOS,,,94022,,b43580c766a9ee73
8598816,-122.1016933,37.3799716,103,S EL MONTE AVE,,LOS ALTOS,,,94022,,d0e70818d1691627
8598899,-122.0674471,37.351749,1635,CANDACE WAY,,LOS ALTOS,,,94024,,f3b26e04121510b0
8598926,-122.0729614,37.3435114,1984,COLLEEN DR,,LOS ALTOS,,,94024,,2e37887dda2789fe
8598958,-122.0673195,37.353212,1551,MEDFORD DR,,LOS ALTOS,,,94024,,ec34f86f4a7b47f5
8598979,-122.088995,37.3416196,908,ST JOSEPH AVE,,LOS ALTOS,,,94024,,b1555fbcc9757407
8599003,-122.10701,37.3811816,21,S GORDON WAY,,LOS ALTOS,,,94022,,a63d151070e55e95
8599122,-122.124612,37.390446,431,SAN DOMINGO WAY,,LOS ALTOS,,,94022,,0daa213faab5b545
8599183,-122.0842754,37.363554,1078,MUIR WAY,,LOS ALTOS,,,94024,,47a536741aa4292d
8599239,-122.088003,37.3417264,956,HIGHLANDS CIR,,LOS ALTOS,,,94024,,8838bee722938777
8599244,-122.0646976,37.3528872,1482,BROOKMILL RD,,LOS ALTOS,,,94024,,fb4a02b7fc00775c
8599280,-122.1037324,37.372659,432,ARBOLEDA DR,,LOS ALTOS,,,94024,,17efd2ca8f98e17f
8599311,-122.0853145,37.3470066,1325,MONTCLAIRE WAY,,LOS ALTOS,,,94024,,4b8ef9631451917f
8599365,-122.1241088,37.3970702,453,W PORTOLA AVE,,LOS ALTOS,,,94022,,3c75907d83bb57ba
8599397,-122.1108989,37.3714098,145,FREMONT AVE,,LOS ALTOS,,,94022,,7d466bb9780744b1
8599594,-122.0973521,37.3569269,1290,ARBOR AVE,,LOS ALTOS,,,94024,,d771a64122d36607
8599596,-122.0725514,37.3586878,1329,CHELSEA DR,,LOS ALTOS,,,94024,,02848699b5f04d2d
8599601,-122.0970271,37.3756869,673,BENVENUE AVE,,LOS ALTOS,,,94024,,b42c88be926f8d80
8599613,-122.106382,37.3828741,330,ANGELA CT,,LOS ALTOS,,,94022,,8c4b40f19e5127fa
8599616,-122.1015394,37.3711864,531,ROSITA AVE,,LOS ALTOS,,,94024,,73f02f2cf695251b
8599725,-122.1245957,37.3895398,471,HACIENDA WAY,,LOS ALTOS,,,94022,,bf856b2da78aac4d
8599769,-122.1220626,37.3892562,430,GUADALUPE DR,,LOS ALTOS,,,94022,,37f8609995aa7bd0
8599790,-122.066307,37.3462787,1840,FALLEN LEAF LN,,LOS ALTOS,,,94024,,ae5d2f026e5457a4
8599823,-122.0963219,37.3794103,695,RIVIERA DR,,LOS ALTOS,,,94024,,633e5498d9bafed5
8599880,-122.1043562,37.378147,244,S EL MONTE AVE,,LOS ALTOS,,,94022,,92f9215992516af9
8599893,-122.1182995,37.3847896,154,BRIDGTON CT,,LOS ALTOS,,,94022,,2e50e15e59fba18c
8599895,-122.1096196,37.3685844,829,ORCHID PL,,LOS ALTOS,,,94024,,b18890ca8058519c
8599929,-122.0796444,37.342614,1195,ST CHARLES CT,,LOS ALTOS,,,94024,,afe380596d0e517f
8599975,-122.1111089,37.3746043,456,GABILAN ST,7,LOS ALTOS,,,94022,,b5533bbd3e268fd3
8600015,-122.0661376,37.3316293,22367,STARLING DR,,LOS ALTOS,,,94024,,34caeb73ba035d51
8600039,-122.1034871,37.3923327,446,CASITA CT,,LOS ALTOS,,,94022,,2aeecd11b32fa578
8600295,-122.0711783,37.3390525,2116,DEODARA DR,,LOS ALTOS,,,94024,,070ccec0066a93b4
8600377,-122.1143606,37.366286,931,MATTS CT,,LOS ALTOS,,,94024,,4dc29f28f70bc5b6
8600396,-122.0862079,37.3440334,1034,ST JOSEPH AVE,,LOS ALTOS,,,94024,,63e6643c00998422
8600397,-122.0933362,37.3475653,738,LOYOLA DR,,LOS ALTOS,,,94024,,3178e2d667010b7e
8600400,-122.087988,37.3568838,960,AURA CT,,LOS ALTOS,,,94024,,d996673b02939ede
8600477,-122.1107254,37.364806,845,MADONNA WAY,,LOS ALTOS,,,94024,,a4709ff98a67ca2e
8600484,-122.0970761,37.3855448,230,N EL MONTE AVE,,LOS ALTOS,,,94022,,21c84187b5266cd8
8600508,-122.0955266,37.3549163,1415,COUNTRY CLUB DR,,LOS ALTOS,,,94024,,f0fd48a9b8030a5f
8600585,-122.0948943,37.3597896,728,BRENTWOOD PL,,LOS ALTOS,,,94024,,01396dc9005d979f
8600621,-122.104881,37.3847872,186,AVALON DR,,LOS ALTOS,,,94022,,54364fad1fb6b2fb
8600629,-122.0718696,37.353434,1546,CANTERBURY WAY,,LOS ALTOS,,,94024,,8f93aee247ef938a
8600713,-122.1025448,37.3670359,415,COVINGTON RD,,LOS ALTOS,,,94024,,58e7860269008ffe
8601013,-122.0725907,37.3433928,1970,NEWCASTLE DR,,LOS ALTOS,,,94024,,46570368719c8776
8601028,-122.1257006,37.395227,506,VAN BUREN ST,,LOS ALTOS,,,94022,,81395bee69a86d0d
8601031,-122.0650714,37.3524976,1485,BROOKMILL RD,,LOS ALTOS,,,94024,,d748ce7bea8c2fe4
8601065,-122.0847269,37.3429849,1075,YORKSHIRE DR,,LOS ALTOS,,,94024,,cf06b1df5a3e9c9b
8601098,-122.124358,37.3952291,460,VAN BUREN ST,,LOS ALTOS,,,94022,,673cb3b98e08c455
8601143,-122.0794294,37.3454626,1880,GRANGER AVE,,LOS ALTOS,,,94024,,94316949557bec56
8601179,-122.0851786,37.3561664,1410,HOLLY AVE,,LOS ALTOS,,,94024,,a0cee295dc5ab4ad
8601253,-122.0979544,37.3726994,654,ARBOLEDA DR,,LOS ALTOS,,,94024,,e954570a38f340a3
8601254,-122.1097194,37.3987629,4844,EL CAMINO REAL,,LOS ALTOS,,,94022,,b3c261b174b73a0b
8601270,-122.1144845,37.3834797,11,MT HAMILTON AVE,,LOS ALTOS,,,94022,,d5be586f5cde27b2
8601310,-122.1025126,37.3878302,354,VERANO DR,,LOS ALTOS,,,94022,,079f7de975e0de00
8601311,-122.0936637,37.3648524,758,COVINGTON RD,,LOS ALTOS,,,94024,,48a3b82f99269f62
8601341,-122.1047245,37.3880773,374,AVALON DR,,LOS ALTOS,,,94022,,c8c2f370fb75ffc7
8601354,-122.1032617,37.3925802,449,CASITA CT,,LOS ALTOS,,,94022,,3c4fc6b327dee92c
8601373,-122.1121374,37.3847811,174,FREDERICK CT,,LOS ALTOS,,,94022,,735daeab8c214f9e
8601430,-122.0805632,37.3570995,1208,EUREKA CT,,LOS ALTOS,,,94024,,af477bd734710f05
8601470,-122.0829938,37.3513093,1644,KENSINGTON AVE,,LOS ALTOS,,,94024,,dda9649b48f5676c
8601486,-122.0655508,37.3569823,1701,OAK AVE,,LOS ALTOS,,,94024,,fa0c400df5d80695
8601487,-122.0874369,37.3450413,1025,ROBIN HOOD CT,,LOS ALTOS,,,94024,,0b5b3e012092faa9
8601531,-122.0662313,37.3475872,1690,MORTON AVE,,LOS ALTOS,,,94024,,92616f641c8895a7
8601534,-122.0901744,37.3475698,890,MORA DR,,LOS ALTOS,,,94024,,7c60156d01f494ba
8601556,-122.1219358,37.4010063,1036,LOS ALTOS AVE,,LOS ALTOS,,,94022,,0cc9e33f11df10ea
8601638,-122.1135657,37.3979876,87,CHESTER CIR,,LOS ALTOS,,,94022,,f792b3bb15193407
8601654,-122.1124495,37.3836121,61,CODY LN,,LOS ALTOS,,,94022,,9f531e86e6505f45
8601682,-122.076705,37.3368494,5760,ARBORETUM DR,,LOS ALTOS,,,94024,,7ad62483c7d3e3fe
8601683,-122.1069203,37.3962082,305,MARICH WAY,,LOS ALTOS,,,94022,,23840c11f1f12f7c
8601684,-122.1034427,37.3413733,10535,W LOYOLA DR,,LOS ALTOS,,,94024,,743ec1e507ab14ed
8601705,-122.0884235,37.3566527,944,AURA CT,,LOS ALTOS,,,94024,,52e9c2fd5054c956
8601709,-122.0689983,37.3558128,1560,AWALT CT,,LOS ALTOS,,,94024,,7f6d7441e95ee176
8601763,-122.1108575,37.3677378,849,STARLITE LN,,LOS ALTOS,,,94024,,5046ec8da3ec1bdc
8601768,-122.0945397,37.3641345,755,FILIP RD,,LOS ALTOS,,,94024,,f22beb301a311bfc
8601805,-122.100984,37.3512215,1595,FAIRWAY DR,,LOS ALTOS,,,94024,,698f7e1d38fc9cce
8601828,-122.0719595,37.3518176,1490,FREMONT AVE,,LOS ALTOS,,,94024,,48ad25d99ff93ae1
8601864,-122.0671731,37.3416414,2014,CRIST DR,,LOS ALTOS,,,94024,,52ad604a7054befc
8601885,-122.1216772,37.3951289,738,LOS ALTOS AVE,,LOS ALTOS,,,94022,,9468f8a29f3b4c50
8601932,-122.1096243,37.3847716,200,ALMOND AVE,,LOS ALTOS,,,94022,,9e123dc3dd071655
8601975,-122.1052975,37.3793427,157,OSAGE AVE,,LOS ALTOS,,,94022,,0d6469d84d8981e1
8601977,-122.0821926,37.3445079,1962,LAVER CT,,LOS ALTOS,,,94024,,6a95f813308ade6d
8602057,-122.1060589,37.3912152,388,ALVARADO AVE,,LOS ALTOS,,,94022,,264656f0c096df22
8602175,-122.1179347,37.3786004,209,1ST ST,,LOS ALTOS,,,94022,,c6e772b99521b5cc
8602200,-122.1037437,37.3951447,745,DISTEL DR,,LOS ALTOS,,,94022,,f985ee77348506e2
8602298,-122.0954006,37.3580385,1320,COUNTRY CLUB DR,,LOS ALTOS,,,94024,,9f618c8740bfdfeb
8602303,-122.1070142,37.3791406,177,S GORDON WAY,,LOS ALTOS,,,94022,,5b34570d6f2af958
8602311,-122.1165366,37.3943126,680,BELDEN DR,,LOS ALTOS,,,94022,,6b9971fdd12c8e57
8602316,-122.0894524,37.364253,1049,RUSSELL AVE,,LOS ALTOS,,,94024,,c63bb26d43f3c08f
8602453,-122.1152189,37.3946714,5,MAY LN,,LOS ALTOS,,,94022,,fa0ae2d5cee236f7
8602487,-122.0715827,37.3461751,1500,OAKLEY DR,,LOS ALTOS,,,94024,,727b64663e7b1cb0
8602505,-122.1188725,37.3826391,68,OAK ST,,LOS ALTOS,,,94022,,aee054ea70ff4219
8602516,-122.0755438,37.3506268,1336,RICHARDSON AVE,,LOS ALTOS,,,94024,,4b41318f6c7dc8e7
8602517,-122.1152287,37.3999013,44,LOUCKS AVE,,LOS ALTOS,,,94022,,1d034b217a9a23c5
8602545,-122.0999406,37.3484505,1692,WHITHAM AVE,,LOS ALTOS,,,94024,,9d2d71e879098d73
8602553,-122.1079706,37.3504996,23958,SPALDING AVE,,LOS ALTOS,,,94024,,235c650cffd77409
8602598,-122.0643141,37.3531395,1456,BROOKMILL RD,,LOS ALTOS,,,94024,,61f25bd605854a62
8602625,-122.0839758,37.3487744,1210,MONTCLAIRE WAY,,LOS ALTOS,,,94024,,3da9c8b77f78c86d
8602671,-122.0814732,37.3440067,1954,KNOLLWOOD LN,,LOS ALTOS,,,94024,,8396345b457a3721
8602715,-122.1106821,37.3924786,158,ALVARADO AVE,,LOS ALTOS,,,94022,,af573e7ae86db985
8602726,-122.0905816,37.3536073,1531,ARBOR AVE,,LOS ALTOS,,,94024,,ca96eccae9fa4844
8602883,-122.1134937,37.3685311,691,MILVERTON RD,,LOS ALTOS,,,94022,,ba5872a7d62e153a
8602912,-122.0679277,37.3436613,1930,CHURTON AVE,,LOS ALTOS,,,94024,,f13a897db375bb73
8602914,-122.0953904,37.3599779,720,BRENTWOOD PL,,LOS ALTOS,,,94024,,5546ead41f65f8b1
8602970,-122.0842407,37.3401759,921,OXFORD DR,,LOS ALTOS,,,94024,,5343f0fccd2d6bd2
8602976,-122.1162243,37.3879991,87,YERBA BUENA AVE,,LOS ALTOS,,,94022,,9179c75f88343ecc
8603050,-122.1121871,37.3727326,574,LASSEN ST,,LOS ALTOS,,,94022,,0ebd148b3ffb0730
8603054,-122.091271,37.3633576,1094,GOLDEN WAY,,LOS ALTOS,,,94024,,a68a635f308b23e3
8603063,-122.1197348,37.3946201,724,LINDEN AVE,,LOS ALTOS,,,94022,,3aaef55589d4274e
8603160,-122.1048442,37.3696195,756,LA PRENDA RD,,LOS ALTOS,,,94024,,b30b3e7cd8a7ca0c
8603191,-122.1254196,37.3970246,501,W PORTOLA AVE,,LOS ALTOS,,,94022,,40bb5acaa87f380f
8603238,-122.0900918,37.3656755,966,RUSSELL AVE,,LOS ALTOS,,,94024,,70ed6c9627cf0a74
8603244,-122.1042702,37.3674134,356,COVINGTON RD,,LOS ALTOS,,,94024,,0a2be3ce5a76a587
8603286,-122.1240507,37.3825263,425,MONTEREY PL,,LOS ALTOS,,,94022,,0e6981489831c0ff
8603328,-122.0923998,37.3620677,1160,SEENA AVE,,LOS ALTOS,,,94024,,cd88a10080ed5c0b
8603390,-122.1122412,37.3908612,520,SAN FELICIA WAY,,LOS ALTOS,,,94022,,fcde0b74628bc1a9
8603407,-122.0790125,37.3496682,1254,NIGHTINGALE CT,,LOS ALTOS,,,94024,,1e1729cb29f50dd7
8603424,-122.1210307,37.3965881,791,LOS ALTOS AVE,,LOS ALTOS,,,94022,,84f5fd4a2da00ed1
8603430,-122.0790616,37.3598062,1281,PORTLAND AVE,,LOS ALTOS,,,94024,,d02253f5ebacd349
8603455,-122.1012425,37.3743549,542,SAN LUIS AVE,,LOS ALTOS,,,94024,,183dcc7ac551b03e
8603477,-122.1106505,37.3843125,155,MERRITT RD,,LOS ALTOS,,,94022,,ea40323d67a67c1d
8603509,-122.0957222,37.3640717,710,RONALD CT,,LOS ALTOS,,,94024,,6261ec42c2396b91
8603510,-122.0723761,37.3443104,1995,COLLEEN DR,,LOS ALTOS,,,94024,,c9bcaf2d82d7cd0f
8603704,-122.0812945,37.365962,940,BLACK MOUNTAIN CT,,LOS ALTOS,,,94024,,c1ab7a4aaff05669
8603707,-122.1025061,37.3730933,485,ARBOLEDA DR,,LOS ALTOS,,,94024,,c3d5a8b2931422bc
8603708,-122.1034084,37.3582094,24153,SUMMERHILL AVE,,LOS ALTOS,,,94024,,66fb4af9b25d43f8
8603713,-122.109508,37.3963046,783,JORDAN AVE,,LOS ALTOS,,,94022,,ff1cb1ea53be2e16
8603718,-122.0649147,37.3458386,1731,PENNY WAY,,LOS ALTOS,,,94024,,38a6b208e892a1b3
8603721,-122.0644757,37.3398261,2060,FALLEN LEAF LN,,LOS ALTOS,,,94024,,3ecc91d3455c1ea4
8603774,-122.0646602,37.3573403,1722,SELIG LN,,LOS ALTOS,,,94024,,2e65bf2ea0628fa6
8603794,-122.0785643,37.3556514,1468,GRANT RD,,LOS ALTOS,,,94024,,09e2f935e7489576
8603795,-122.1024763,37.3619222,508,OUTLOOK DR,,LOS ALTOS,,,94024,,fafb205e75df1442
8603806,-122.1196814,37.3891463,425,PATRICK WAY,,LOS ALTOS,,,94022,,478946e7b0a38162
8603815,-122.0732537,37.3428538,1994,NEWCASTLE DR,,LOS ALTOS,,,94024,,e5cea3d7d0b239ce
8603879,-122.1012883,37.3442293,10695,ELOISE CIR,,LOS ALTOS,,,94024,,115626053eaf139d
8603885,-122.0643716,37.3570365,1727,OAK AVE,,LOS ALTOS,,,94024,,2fe8ad1ba25073b1
8603890,-122.1133687,37.3965207,42,E PORTOLA AVE,,LOS ALTOS,,,94022,,622502808bc9dbec
8603915,-122.0839046,37.3603479,1170,BUCKINGHAM DR,,LOS ALTOS,,,94024,,7222f6fde8ecc39c
8603942,-122.1166767,37.4012602,1040,RILMA LN,,LOS ALTOS,,,94022,,ec3d02bebdeae068
8603944,-122.073034,37.3361763,2254,SYCAMORE CT,,LOS ALTOS,,,94024,,6c167cf068320424
8603955,-122.0954099,37.3607303,720,BRENTWOOD CT,,LOS ALTOS,,,94024,,568a3676923f6f22
8603960,-122.064216,37.3533853,1452,BROOKMILL RD,,LOS ALTOS,,,94024,,8834a65b57a11b3d
8603968,-122.1198571,37.381057,1,1ST ST,,LOS ALTOS,,,94022,,92a8e0c518ca7106
8604055,-122.0986599,37.3879679,632,HOLLINGSWORTH DR,,LOS ALTOS,,,94022,,491a95c41153f38c
8604075,-122.081645,37.3506573,1176,RICHARDSON AVE,,LOS ALTOS,,,94024,,443ab8e8775423b8
8604089,-122.105666,37.3484546,23830,PUTTER WAY,,LOS ALTOS,,,94024,,cd1f46947cb26992
8604091,-122.0811654,37.3598602,1195,PORTLAND AVE,,LOS ALTOS,,,94024,,858b63a7a33133a7
8604140,-122.0838247,37.3489523,1730,GRANGER AVE,,LOS ALTOS,,,94024,,bdb156409ea98fea
8604174,-122.110129,37.3918928,179,ARBUELO WAY,,LOS ALTOS,,,94022,,8d13822fe1460b5b
8604199,-122.0842511,37.3456942,1280,EVA AVE,,LOS ALTOS,,,94024,,3e5d5a4b66345ed8
8604200,-122.118145,37.3970428,185,W PORTOLA AVE,,LOS ALTOS,,,94022,,7b96ff7aac217dca
8604208,-122.0643518,37.3585558,1727,HAWKINS DR,,LOS ALTOS,,,94024,,07ae11d20ffd3121
8604270,-122.0917747,37.3545361,1471,ARBOR AVE,,LOS ALTOS,,,94024,,0ae83c3803610431
8604275,-122.1173092,37.3837292,122,HAMILTON CT,,LOS ALTOS,,,94022,,201416f440225eea
8604302,-122.1199789,37.395243,744,LINDEN AVE,,LOS ALTOS,,,94022,,0fd4bbce6fa7a9f4
8604308,-122.0709369,37.3388579,2138,DEODARA DR,,LOS ALTOS,,,94024,,40940510f6022e63
8604359,-122.0655656,37.3503018,1675,FALLEN LEAF LN,,LOS ALTOS,,,94024,,7f5fb009ac52da74
8604361,-122.0876065,37.35448,973,DOLORES AVE,,LOS ALTOS,,,94024,,c4648e8104a5186e
8604379,-122.086327,37.3407328,914,REGENT DR,,LOS ALTOS,,,94024,,94738265b6bc1048
8604430,-122.102041,37.377404,284,RAMON DR,,LOS ALTOS,,,94024,,e2fdfc25688adbd9
8604434,-122.0902217,37.3824461,61,MOUNTAIN VIEW AVE,,LOS ALTOS,,,94024,,e1f692611be655e7
8604598,-122.105384,37.3912107,549,ALICIA WAY,,LOS ALTOS,,,94022,,fda9ba54bdc89278
8604599,-122.1116804,37.373657,517,LASSEN ST,,LOS ALTOS,,,94022,,effc797172533f8d
8604621,-122.1033316,37.3684178,420,HARRINGTON CT,,LOS ALTOS,,,94024,,a07b6dbd4be04bda
8604634,-122.1210555,37.3953545,747,LOS ALTOS AVE,,LOS ALTOS,,,94022,,d17f75ea633ff1e0
8604660,-122.1189271,37.3883354,220,YERBA SANTA AVE,,LOS ALTOS,,,94022,,86e9cb9f46264801
8604662,-122.102168,37.3579764,1225,GRONWALL LN,,LOS ALTOS,,,94024,,5622b5a770c1bbd4
8604698,-122.0980448,37.3700063,726,ROSE LN,,LOS ALTOS,,,94024,,d246fce86b2d033b
8604714,-122.0980171,37.3785219,645,SAN MARTIN PL,,LOS ALTOS,,,94024,,fe133afa1222d585
8604732,-122.0838494,37.3447602,1477,MONTCLAIRE PL,,LOS ALTOS,,,94024,,a2ebdc2d313cb4af
8604769,-122.0753844,37.3463329,1848,JUAREZ AVE,,LOS ALTOS,,,94024,,0f4ee71687822f65
8604881,-122.0856103,37.3482991,1276,MONTCLAIRE WAY,,LOS ALTOS,,,94024,,f128bd2d7b2e41c3
8605014,-122.1206405,37.3932066,270,ALBA CT,,LOS ALTOS,,,94022,,19abd0fdf5bf6456
8605017,-122.0907887,37.3494348,1606,CRESTVIEW DR,,LOS ALTOS,,,94024,,5794cc0f96d6e67d
8605036,-122.097193,37.3784535,675,SAN MARTIN PL,,LOS ALTOS,,,94024,,923199d14c942a52
8605082,-122.1180515,37.4036887,4388,EL CAMINO REAL,167,LOS ALTOS,,,94022,,9dd0f05c97c3e025
8605105,-122.0770411,37.3561938,1420,BRADDALE DR,,LOS ALTOS,,,94024,,480e36d85670c6e3
8605114,-122.0985514,37.3488128,1695,WESTBROOK AVE,,LOS ALTOS,,,94024,,04563738df169a91
8605162,-122.123777,37.3957426,433,VAN BUREN ST,,LOS ALTOS,,,94022,,6ff63e570ee6e23c
8605166,-122.1036727,37.3750084,434,AMADOR AVE,,LOS ALTOS,,,94024,,f7b29ecb99cd73c0
8605182,-122.067208,37.3396962,2031,EL SERENO AVE,,LOS ALTOS,,,94024,,d771a04307d97933
8605226,-122.0813372,37.3393691,2124,SIERRA VENTURA DR,,LOS ALTOS,,,94024,,f5b9f9605d97c401
8605306,-122.0845376,37.3614738,1075,DARTMOUTH LN,,LOS ALTOS,,,94024,,468bd0457ad5a5bc
8605325,-122.0641787,37.3565337,1400,RAVENSWOOD DR,,LOS ALTOS,,,94024,,34cdbdb5c80a73e0
8605327,-122.0719282,37.3459151,1491,ELNORA CT,,LOS ALTOS,,,94024,,b8456950f34e0581
8605345,-122.0696512,37.3439816,1927,ANNETTE LN,,LOS ALTOS,,,94024,,30a44cb1157dc5b0
8605370,-122.0682697,37.3420883,1980,FARNDON AVE,,LOS ALTOS,,,94024,,90b10cafdcaa2cba
8605372,-122.0793745,37.3485646,1241,THURSTON AVE,,LOS ALTOS,,,94024,,e0b8dc0e7ca9931a
8605441,-122.0748414,37.3463621,1847,JUAREZ AVE,,LOS ALTOS,,,94024,,f4f4c9c055107501
8605456,-122.0759409,37.3484075,1357,MORTON AVE,,LOS ALTOS,,,94024,,fd7b6051058df016
8605474,-122.1107617,37.3668079,856,NASH RD,,LOS ALTOS,,,94024,,caa661dbb993881d
8605556,-122.1182558,37.3932588,656,KINGSWOOD WAY,,LOS ALTOS,,,94022,,759b90c359b073b9
8605621,-122.0712429,37.3543928,1514,WESSEX AVE,,LOS ALTOS,,,94024,,623eb435adda9755
8605745,-122.0937979,37.356143,1413,ARBOR AVE,,LOS ALTOS,,,94024,,992f0d650131998b
8605787,-122.102091,37.3747608,501,SAN LUIS AVE,,LOS ALTOS,,,94024,,3c30e716a0b38e10
8605799,-122.1096495,37.3728471,562,SHIRLYNN CT,,LOS ALTOS,,,94022,,ddf90f86df614421
8605833,-122.11372,37.3723132,600,LINCOLN AVE,,LOS ALTOS,,,94022,,2c0a3b7e4bc3330e
8605901,-122.0767038,37.3392365,47,WOODS LN,,LOS ALTOS,,,94024,,c7bcae166cdb7742
8605930,-122.1119617,37.3980069,33,LOS ALTOS SQ,,LOS ALTOS,,,94022,,9d353deeb1264227
8605967,-122.0987137,37.3682914,825,PARMA WAY,,LOS ALTOS,,,94024,,b16973a1bfb7df71
8606046,-122.0723407,37.3355978,1484,REDWOOD DR,,LOS ALTOS,,,94024,,1253f4c305f4a14b
8606095,-122.1161345,37.3808282,26,4TH ST,11,LOS ALTOS,,,94022,,fbf0adeb3bf1df8b
8606284,-122.081455,37.3535468,1555,KENSINGTON CIR,,LOS ALTOS,,,94024,,3e618892ad15c4f1
8606294,-122.0900593,37.3843573,209,MOUNTAIN VIEW AVE,,LOS ALTOS,,,94024,,809ba26f848f2e77
8606377,-122.0780955,37.3626127,1150,GRANT RD,,LOS ALTOS,,,94024,,20a01ccc6b5b3e1d
8606429,-122.0883453,37.3573432,944,MANOR WAY,,LOS ALTOS,,,94024,,5c3d576963504406
8606498,-122.1003584,37.3836953,126,HIGGINS AVE,,LOS ALTOS,,,94022,,9bf9438398a24abc
8606531,-122.089433,37.3516974,1574,COUNTRY CLUB DR,,LOS ALTOS,,,94024,,cc5d628239f8cc77
8606582,-122.0752847,37.3394835,496,SEQUOIA WAY,,LOS ALTOS,,,94024,,7dc5ba35dc696015
8606584,-122.0727661,37.353356,1544,KATHY LN,,LOS ALTOS,,,94024,,1b6899feb947b383
8606603,-122.0771937,37.3456575,1318,BELLWOOD CT,,LOS ALTOS,,,94024,,1fec9c5fb8676ca1
8606609,-122.0956185,37.356478,1346,ARBOR AVE,,LOS ALTOS,,,94024,,d6d3f35f8a5b1731
8606640,-122.0681581,37.3513604,1525,CLAY DR,,LOS ALTOS,,,94024,,dc9724ea7929d2c7
8606642,-122.1102193,37.3825138,175,GALLI DR,,LOS ALTOS,,,94022,,bbf99c028e458f6c
8606652,-122.1102645,37.3761487,174,MARVIN AVE,,LOS ALTOS,,,94022,,8d68cb4d3702be42
8606661,-122.1057972,37.3923368,631,DISTEL DR,,LOS ALTOS,,,94022,,e3e71fb6f74dfcb8
8606665,-122.0791855,37.3477623,1860,GRANT RD,,LOS ALTOS,,,94024,,8cc3996c62d37c44
8606695,-122.0858012,37.366206,1031,ALEGRE AVE,,LOS ALTOS,,,94024,,ab34399819881696
8606714,-122.1160277,37.3970445,805,PLEASANT WAY,,LOS ALTOS,,,94022,,809ad063c4439cf5
8606780,-122.1048625,37.3821642,38,AVALON DR,,LOS ALTOS,,,94022,,9c3bc1c097efdeba
8606890,-122.1016118,37.3392558,10401,SUNHILLS DR,,LOS ALTOS,,,94024,,70fd350feaa36b56
8606934,-122.0804665,37.3382134,2171,VIA ESCALERA,,LOS ALTOS,,,94024,,73191e6d7a3320ba
8607011,-122.1118075,37.3699772,734,S EL MONTE AVE,,LOS ALTOS,,,94022,,51a027708f05c065
8607030,-122.0916652,37.3476209,821,MORA DR,,LOS ALTOS,,,94024,,5d4e689a7f93157a
8607048,-122.0684722,37.3458377,1864,ALFORD AVE,,LOS ALTOS,,,94024,,609f87fcd553f7f9
8607070,-122.1027541,37.3748671,475,SAN LUIS AVE,,LOS ALTOS,,,94024,,635cfd37b513b7d4
8607107,-122.0660511,37.3327539,22366,CRESTON DR,,LOS ALTOS,,,94024,,7c34f77e0f81ac87
8607135,-122.0862217,37.3490599,936,LUNDY LN,,LOS ALTOS,,,94024,,d4f550f0df1d16d1
8607153,-122.07143,37.3431666,1982,ANNETTE LN,,LOS ALTOS,,,94024,,522ef30d47dbedec
8607181,-122.0684677,37.3456208,1872,ALFORD AVE,,LOS ALTOS,,,94024,,90fa4bf675a026db
8607240,-122.1169627,37.3939579,681,TEMPLEBAR WAY,,LOS ALTOS,,,94022,,5c70eecec24c23bc
8607306,-122.1097969,37.3951744,210,PORTOLA CT,,LOS ALTOS,,,94022,,207355a29206386b
8607308,-122.0846567,37.3492459,1210,ARTHUR CT,,LOS ALTOS,,,94024,,725ba1e9dc2ef29e
8607332,-122.118538,37.380232,102,SECOND ST,,LOS ALTOS,,,94022,,22ac733a6efec46c
8607342,-122.0923561,37.3558219,1438,FRONTERO AVE,,LOS ALTOS,,,94024,,29a632802ec4b5b4
8607433,-122.0834065,37.3426951,1989,SCOTT LN,,LOS ALTOS,,,94024,,6642780c84e9bc55
8607467,-122.103681,37.3829303,79,SOLANA DR,,LOS ALTOS,,,94022,,e15173c524b7dd06
8607492,-122.0823286,37.3603527,1271,CARMEL TER,,LOS ALTOS,,,94024,,f74a8f8aad05ec03
8607494,-122.0832008,37.3527953,1585,OAKHURST AVE,,LOS ALTOS,,,94024,,9cb7ce6af0fbc5b9
8607582,-122.0796802,37.3552078,1250,PATLEN DR,,LOS ALTOS,,,94024,,cea00ffb45db1b16
8607766,-122.1048719,37.3902893,501,ALICIA WAY,,LOS ALTOS,,,94022,,571a3484100ffd71
8607784,-122.0987077,37.381199,633,CAMELLIA WAY,,LOS ALTOS,,,94024,,1770c701af357d58
8607830,-122.0838887,37.3464545,1370,MONTCLAIRE WAY,,LOS ALTOS,,,94024,,fcd64bec2d9e5a7b
8607833,-122.0965678,37.35549,1395,VILLA DR,,LOS ALTOS,,,94024,,3db764035e23b84d
8607861,-122.1115572,37.3974521,48,LOS ALTOS SQ,,LOS ALTOS,,,94022,,0f1f883843f4da69
8607887,-122.1111678,37.3757407,135,LYELL ST,,LOS ALTOS,,,94022,,0d9183bd6a905aa5
8607889,-122.0899984,37.3415648,915,ST JOSEPH AVE,,LOS ALTOS,,,94024,,2345d25b3455297b
8607939,-122.0730591,37.35714,1398,CHELSEA DR,,LOS ALTOS,,,94024,,447b02219468a0cf
8607951,-122.1007969,37.3794207,555,CLARK CT,,LOS ALTOS,,,94024,,4a3d47adcd859ae4
8607985,-122.0912239,37.3629215,1122,GOLDEN WAY,,LOS ALTOS,,,94024,,e83e0bf2d1bb9b4e
